REQUEST

URL : https://beta.triseptapi.com/11.0/vax.asmx/HotelListRequest

HEADER : $headers = array(
    "Accept: application/xml",
    "Content-type: application/x-www-form-urlencoded",
    "Content-Encoding: UTF-8",
    "Accept-Encoding: gzip,deflate",
    "Content-length: " . strlen($raw)
);

DATA : requestXml=<VAXXML xmlns="http://www.triseptsolutions.com/HotelList/Request/11.0">
<Header AgencyNumber="T140" Contact="Paulo Andrade" Login="Bug Software" Password="St89vxBs" Vendor="MIT" Site="VAXXML" DynamicPackageId="H11" Culture="en-us" />
<Request>
    <Content Destination="LAS" />
    <Content Destination="MCO" />
  </Request>
</VAXXML>


RESPONSE

<?xml version="1.0" encoding="utf-8"?>
<string xmlns="http://www.triseptsolutions.com/VAXXMLPortal110/VAX"><VAXXML xmlns="http://www.triseptsolutions.com/HotelList/Response/11.0"><Response><Destination CityCode="LAS"><Hotel Code="DT-LASCH" Name="Doubletree By Hilton Las Vegas Airport" LastUpdated="2019-07-15T07:16:28"><Location><Geo Latitude="36.0586" Longitude="-115.1449" /><Address StreetAddress="7250 Pollock Drive" City="Las Vegas" StateProvince="" CountryCode="US " /></Location></Hotel><Hotel Code="DT-LASNT" Name="Tropicana Las Vegas A Doubletree By Hilton Hotel A" LastUpdated="2019-08-03T01:23:07"><Location><Geo Latitude="36.099845" Longitude="-115.172092" /><Address StreetAddress="3801 Las Vegas Blvd South" City="Las Vegas" StateProvince="" CountryCode="US " /></Location></Hotel><Hotel Code="ES-LASCC" Name="Embassy Suites By Hilton Convention Center Las Veg" LastUpdated="2019-08-11T19:15:22"><Location><Geo Latitude="36.123966" Longitude="-115.153893" /><Address StreetAddress="3600 Paradise Road" City="Las Vegas" StateProvince="" CountryCode="US " /></Location></Hotel><Hotel Code="ES-LASES" Name="Embassy Suites By Hilton Las Vegas" LastUpdated="2019-08-12T01:17:38"><Location><Geo Latitude="36.11087" Longitude="-115.151382" /><Address StreetAddress="4315 Swenson Street" City="Las Vegas" StateProvince="" CountryCode="US " /></Location></Hotel><Hotel Code="GI-LASLG" Name="Hilton Garden Inn Las Vegas City Center" LastUpdated="2019-06-04T01:10:01"><Location><Geo Latitude="36.105746" Longitude="-115.181591" /><Address StreetAddress="4655 Dean Martin Dr." City="Las Vegas" StateProvince="" CountryCode="US " /></Location></Hotel><Hotel Code="HG-LASAP" Name="Homewood Suites By Hilton Las Vegas Airport" LastUpdated="2019-08-02T19:32:47"><Location><Geo Latitude="36.064842" Longitude="-115.161766" /><Address StreetAddress="230 Hidden Well Rd" City="Las Vegas" StateProvince="" CountryCode="US " /></Location></Hotel><Hotel Code="HG-LASDM" Name="Homewood Suites By Hilton Las Vegas City Center" LastUpdated="2019-08-02T13:13:47"><Location><Geo Latitude="36.105746" Longitude="-115.181591" /><Address StreetAddress="4625 Dean Martin Drive" City="Las Vegas" StateProvince="" CountryCode="US " /></Location></Hotel><Hotel Code="HH-LASCS" Name="Elara By Hilton Grand Vacations Center Strip" LastUpdated="2019-08-11T19:16:04"><Location><Geo Latitude="36.108531" Longitude="-115.168744" /><Address StreetAddress="80 East Harmon Avenue" City="Las Vegas" StateProvince="" CountryCode="US " /></Location></Hotel><Hotel Code="HH-LASFL" Name="Hilton Grand Vacations At The Flamingo" LastUpdated="2019-08-02T13:14:09"><Location><Geo Latitude="36.1166" Longitude="-115.1688" /><Address StreetAddress="3575 Las Vegas Boulevard South" City="Las Vegas" StateProvince="" CountryCode="US " /></Location></Hotel><Hotel Code="HH-LASLV" Name="Hilton Grand Vacations On Paradise Convention Cen" LastUpdated="2019-08-03T01:25:58"><Location><Geo Latitude="36.140096" Longitude="-115.15382" /><Address StreetAddress="455 Karen Avenue" City="Las Vegas" StateProvince="" CountryCode="US " /></Location></Hotel><Hotel Code="HH-LASVS" Name="Hilton Grand Vacations On The Las Vegas Strip" LastUpdated="2019-08-03T01:25:59"><Location><Geo Latitude="36.139938" Longitude="-115.16097" /><Address StreetAddress="2650 Las Vegas Boulevard South" City="Las Vegas" StateProvince="" CountryCode="US " /></Location></Hotel><Hotel Code="HX-LASET" Name="Hampton Inn Suites Las Vegas Airport" LastUpdated="2019-08-03T01:28:58"><Location><Geo Latitude="36.0702" Longitude="-115.1187" /><Address StreetAddress="6575 South Eastern Avenue" City="Las Vegas" StateProvince="" CountryCode="US " /></Location></Hotel><Hotel Code="HX-LASIN" Name="Hampton Inn Tropicana" LastUpdated="2019-07-31T13:10:37"><Location><Geo Latitude="36.099374" Longitude="-115.182155" /><Address StreetAddress="4975 S. Dean Martin Dr." City="Las Vegas" StateProvince="" CountryCode="US " /></Location></Hotel><Hotel Code="HT-LASSO" Name="Home2 Suites By Hilton Las Vegas Strip South" LastUpdated="2019-04-07T01:55:40"><Location><Geo Latitude="36.04827" Longitude="-115.17086" /><Address StreetAddress="7740 Las Vegas Blvd South" City="Las Vegas" StateProvince="" CountryCode="US " /></Location></Hotel><Hotel Code="HT-LASTA" Name="Home2 Suites by Hilton Las Vegas City Center" LastUpdated="2019-05-23T01:29:07"><Location><Geo Latitude="36.100365" Longitude="-115.182682" /><Address StreetAddress="4940 Dean Martin Drive" City="Las Vegas" StateProvince="" CountryCode="US " /></Location></Hotel><Hotel Code="RU-LASRU" Name="Tru By Hilton Las Vegas Airport Nv" LastUpdated="2019-07-31T13:28:03"><Location><Geo Latitude="36.064647" Longitude="-115.162563" /><Address StreetAddress="6862 Gilespie Street" City="Las Vegas" StateProvince="" CountryCode="US " /></Location></Hotel><Hotel Code="WA-LASWD" Name="Waldorf Astoria Las Vegas" LastUpdated="2019-08-06T13:41:44"><Location><Geo Latitude="36.1061131344" Longitude="-115.174042426" /><Address StreetAddress="3752 Las Vegas Blvd S" City="Las Vegas" StateProvince="" CountryCode="US " /></Location></Hotel><Hotel Code="36910" Name="Flamingo Las Vegas" LastUpdated="2019-06-10T15:46:07"><Location><Geo Latitude="36.115634" Longitude="-115.17255" /><Address StreetAddress="3555 Las Vegas Boulevard South" City="Las Vegas" StateProvince="NV" CountryCode="US " /></Location></Hotel><Hotel Code="36931" Name="Harrah's Las Vegas" LastUpdated="2019-02-07T13:24:20"><Location><Geo Latitude="36.119036" Longitude="-115.17177" /><Address StreetAddress="3475 Las Vegas Blvd. South" City="Las Vegas" StateProvince="NV" CountryCode="US " /></Location></Hotel><Hotel Code="36933" Name="Rio All-Suite Hotel and Casino" LastUpdated="2019-04-25T14:25:48"><Location><Geo Latitude="36.11537" Longitude="-115.09463" /><Address StreetAddress="3700 Flamingo Road" City="Las Vegas" StateProvince="NV" CountryCode="US " /></Location></Hotel><Hotel Code="36934" Name="Caesars Palace" LastUpdated="2019-06-10T15:51:02"><Location><Geo Latitude="36.117646" Longitude="-115.17281" /><Address StreetAddress="3570 Las Vegas Boulevard South" City="Las Vegas" StateProvince="NV" CountryCode="US " /></Location></Hotel><Hotel Code="36935" Name="Bally's Las Vegas" LastUpdated="2018-11-17T15:14:24"><Location><Geo Latitude="36.114121" Longitude="-115.17095" /><Address StreetAddress="3645 Las Vegas Boulevard" City="Las Vegas" StateProvince="NV" CountryCode="US " /></Location></Hotel><Hotel Code="37009" Name="Paris Las Vegas" LastUpdated="2019-05-20T13:46:16"><Location><Geo Latitude="36.112581" Longitude="-115.17002" /><Address StreetAddress="3655 Las Vegas Blvd. S." City="Las Vegas" StateProvince="NV" CountryCode="US " /></Location></Hotel><Hotel Code="38461" Name="Planet Hollywood Resort and Casino" LastUpdated="2019-04-25T14:27:49"><Location><Geo Latitude="36.110067" Longitude="-115.1725" /><Address StreetAddress="3667 Las Vegas Boulevard South" City="Las Vegas" StateProvince="NV" CountryCode="US " /></Location></Hotel><Hotel Code="66224" Name="The Cromwell" LastUpdated="2019-04-09T14:18:45"><Location><Geo Latitude="36.123611" Longitude="-115.1703" /><Address StreetAddress="3595 Las Vegas Blvd South" City="Las Vegas" StateProvince="NV" CountryCode="US " /></Location></Hotel><Hotel Code="67646" Name="New York-New York Hotel and Casino" LastUpdated="2019-08-13T10:15:59"><Location><Geo Latitude="36.10183" Longitude="-115.1728" /><Address StreetAddress="3790 Las Vegas Boulevard South" City="Las Vegas" StateProvince="NV" CountryCode="US " /></Location></Hotel><Hotel Code="67736" Name="The LINQ Hotel and Casino" LastUpdated="2018-07-03T15:11:21"><Location><Geo Latitude="36.120043" Longitude="-115.17148" /><Address StreetAddress="3535 Las Vegas Blvd. South" City="Las Vegas" StateProvince="NV" CountryCode="US " /></Location></Hotel><Hotel Code="71333" Name="The Mirage Hotel and Casino" LastUpdated="2019-08-07T17:15:27"><Location><Geo Latitude="36.122026" Longitude="-115.17239" /><Address StreetAddress="3400 Las Vegas Boulevard South" City="Las Vegas" StateProvince="NV" CountryCode="US " /></Location></Hotel><Hotel Code="71334" Name="Bellagio" LastUpdated="2019-03-25T14:07:37"><Location><Geo Latitude="36.113919" Longitude="-115.173862" /><Address StreetAddress="3600 Las Vegas Blvd" City="Las Vegas" StateProvince="NV" CountryCode="US " /></Location></Hotel><Hotel Code="71335" Name="MGM Grand Hotel and Casino" LastUpdated="2019-08-07T17:49:34"><Location><Geo Latitude="36.104415" Longitude="-115.172422" /><Address StreetAddress="3799 Las Vegas Blvd., South" City="Las Vegas" StateProvince="NV" CountryCode="US " /></Location></Hotel><Hotel Code="71336" Name="The Signature at MGM Grand" LastUpdated="2019-04-15T10:21:37"><Location><Geo Latitude="36.10756" Longitude="-115.166" /><Address StreetAddress="145 East Harmon Avenue" City="Las Vegas" StateProvince="NV" CountryCode="US " /></Location></Hotel><Hotel Code="71337" Name="Mandalay Bay Resort and Casino" LastUpdated="2019-08-07T14:39:27"><Location><Geo Latitude="36.091723" Longitude="-115.175018" /><Address StreetAddress="3950 Las Vegas Blvd. S." City="Las Vegas" StateProvince="NV" CountryCode="US " /></Location></Hotel><Hotel Code="71341" Name="Excalibur Hotel and Casino" LastUpdated="2019-05-23T14:00:56"><Location><Geo Latitude="36.099227" Longitude="-115.172943" /><Address StreetAddress="3850 Las Vegas Blvd South" City="Las Vegas" StateProvince="NV" CountryCode="US " /></Location></Hotel><Hotel Code="71342" Name="Circus Circus Hotel, Casino and Theme Park" LastUpdated="2018-06-20T11:46:52"><Location><Geo Latitude="36.138267" Longitude="-115.161095" /><Address StreetAddress="2880 Las Vegas Boulevard South" City="Las Vegas" StateProvince="NV" CountryCode="US " /></Location></Hotel><Hotel Code="71349" Name="Park MGM Las Vegas" LastUpdated="2019-08-07T15:10:25"><Location><Geo Latitude="36.105111" Longitude="-115.172898" /><Address StreetAddress="3770 Las Vegas Boulevard - South" City="Las Vegas" StateProvince="" CountryCode="US " /></Location></Hotel><Hotel Code="71350" Name="Luxor Hotel and Casino" LastUpdated="2019-08-07T17:32:20"><Location><Geo Latitude="36.095942" Longitude="-115.172899" /><Address StreetAddress="3900 Las Vegas Boulevard South" City="Las Vegas" StateProvince="NV" CountryCode="US " /></Location></Hotel><Hotel Code="71351" Name="ARIA Resort and Casino" LastUpdated="2019-04-01T08:43:11"><Location><Geo Latitude="36.107292" Longitude="-115.173339" /><Address StreetAddress="3730 Las Vegas Blvd., South" City="Las Vegas" StateProvince="NV" CountryCode="US " /></Location></Hotel><Hotel Code="71352" Name="Vdara Hotel and Spa at ARIA Las Vegas" LastUpdated="2018-11-26T14:09:02"><Location><Geo Latitude="36.107924" Longitude="-115.175686" /><Address StreetAddress="2600 W. Harmon Avenue" City="Las Vegas" StateProvince="NV" CountryCode="US " /></Location></Hotel><Hotel Code="971335" Name="SKYLOFTS at MGM Grand" LastUpdated="2019-04-05T15:06:31"><Location><Geo Latitude="36.104415" Longitude="-115.172422" /><Address StreetAddress="3799 Las Vegas Blvd., South" City="Las Vegas" StateProvince="NV" CountryCode="US " /></Location></Hotel><Hotel Code="971337" Name="Delano Las Vegas" LastUpdated="2019-04-04T13:58:31"><Location><Geo Latitude="36.091723" Longitude="-115.17427" /><Address StreetAddress="3940 Las Vegas Blvd South" City="Las Vegas" StateProvince="NV" CountryCode="US " /></Location></Hotel><Hotel Code="971349" Name="NoMad Las Vegas" LastUpdated="2019-08-13T19:22:38"><Location><Geo Latitude="36.104453" Longitude="-115.173174" /><Address StreetAddress="3772 S Las Vegas  Boulevard" City="Las Vegas" StateProvince="NV" CountryCode="US " /></Location></Hotel><Hotel Code="936934" Name="Nobu Hotel at Caesars Palace" LastUpdated="2019-06-11T10:34:12"><Location><Geo Latitude="36.11706" Longitude="-115.17787" /><Address StreetAddress="3570 Las Vegas Boulevard South" City="Las Vegas" StateProvince="NV" CountryCode="US " /></Location></Hotel><Hotel Code="937865" Name="Encore at Wynn Las Vegas" LastUpdated="2019-05-21T12:36:42"><Location><Geo Latitude="36.12765" Longitude="-115.16713" /><Address StreetAddress="3121 Las Vegas Boulevard South" City="Las Vegas" StateProvince="NV" CountryCode="US " /></Location></Hotel><Hotel Code="943948" Name="The Palazzo at The Venetian®" LastUpdated="2019-01-15T09:10:56"><Location><Geo Latitude="36.123693" Longitude="-115.170156" /><Address StreetAddress="3325 Las Vegas Blvd. South" City="Las Vegas" StateProvince="NV" CountryCode="US " /></Location></Hotel><Hotel Code="955657" Name="Palms Place Hotel and Spa" LastUpdated="2019-03-11T11:08:39"><Location><Geo Latitude="36.114209" Longitude="-115.19879" /><Address StreetAddress="4381 West Flamingo Road" City="Las Vegas" StateProvince="NV" CountryCode="US " /></Location></Hotel><Hotel Code="72972" Name="Westgate Las Vegas Resort and Casino" LastUpdated="2019-06-27T11:42:31"><Location><Geo Latitude="36.137287" Longitude="-115.154698" /><Address StreetAddress="3000 Paradise Road" City="Las Vegas" StateProvince="NV" CountryCode="US " /></Location></Hotel><Hotel Code="74308" Name="Golden Nugget" LastUpdated="2018-11-19T16:19:45"><Location><Geo Latitude="36.169598" Longitude="-115.14151" /><Address StreetAddress="129 E Fremont Street" City="Las Vegas" StateProvince="NV" CountryCode="US " /></Location></Hotel><Hotel Code="74454" Name="South Point Hotel and Casino" LastUpdated="2018-08-07T14:16:15"><Location><Geo Latitude="36.012355" Longitude="-115.17243" /><Address StreetAddress="9777 Las Vegas Boulevard South" City="Las Vegas" StateProvince="NV" CountryCode="US " /></Location></Hotel><Hotel Code="77759" Name="Suncoast Hotel and Casino" LastUpdated="2019-06-17T13:24:01"><Location><Geo Latitude="36.169111" Longitude="-115.2913" /><Address StreetAddress="9090 Alta Drive" City="Las Vegas" StateProvince="NV" CountryCode="US " /></Location></Hotel><Hotel Code="77867" Name="The Orleans Hotel and Casino" LastUpdated="2019-06-17T13:25:11"><Location><Geo Latitude="36.100881" Longitude="-115.202124" /><Address StreetAddress="4500 West Tropicana Avenue" City="Las Vegas" StateProvince="NV" CountryCode="US " /></Location></Hotel><Hotel Code="77923" Name="Gold Coast Hotel and Casino" LastUpdated="2019-06-17T13:20:09"><Location><Geo Latitude="36.116797" Longitude="-115.19243" /><Address StreetAddress="4000 West Flamingo Road" City="Las Vegas" StateProvince="NV" CountryCode="US " /></Location></Hotel><Hotel Code="77924" Name="Fremont Hotel" LastUpdated="2019-06-24T11:19:10"><Location><Geo Latitude="36.170747" Longitude="-115.14352" /><Address StreetAddress="200 E Fremont St" City="Las Vegas" StateProvince="NV" CountryCode="US " /></Location></Hotel><Hotel Code="77925" Name="Sam's Town Hotel, Gambling Hall and Bowling Center" LastUpdated="2019-06-17T13:23:12"><Location><Geo Latitude="36.111801" Longitude="-115.06092" /><Address StreetAddress="5111 Boulder Highway" City="Las Vegas" StateProvince="NV" CountryCode="US " /></Location></Hotel><Hotel Code="77926" Name="Main Street Station Hotel" LastUpdated="2019-06-24T14:06:12"><Location><Geo Latitude="36.174896" Longitude="-115.1451" /><Address StreetAddress="200 N Main St" City="Las Vegas" StateProvince="NV" CountryCode="US " /></Location></Hotel><Hotel Code="77927" Name="California Hotel" LastUpdated="2019-06-24T14:08:38"><Location><Geo Latitude="36.172953" Longitude="-115.14474" /><Address StreetAddress="12 East Odgen Ave" City="Las Vegas" StateProvince="NV" CountryCode="US " /></Location></Hotel><Hotel Code="38462" Name="Treasure Island - TI" LastUpdated="2018-09-13T12:08:51"><Location><Geo Latitude="36.124199" Longitude="-115.170644" /><Address StreetAddress="3300 Las Vegas Boulevard South" City="Las Vegas" StateProvince="NV" CountryCode="US " /></Location></Hotel><Hotel Code="43948" Name="The Venetian® Resort Las Vegas" LastUpdated="2019-07-26T15:04:24"><Location><Geo Latitude="36.122534" Longitude="-115.169757" /><Address StreetAddress="3355 South Las Vegas Blvd" City="Las Vegas" StateProvince="NV" CountryCode="US " /></Location></Hotel><Hotel Code="43984" Name="The Cosmopolitan of Las Vegas" LastUpdated="2019-06-20T14:32:46"><Location><Geo Latitude="36.108426" Longitude="-115.173342" /><Address StreetAddress="3708 S. Las Vegas Blvd." City="Las Vegas" StateProvince="NV" CountryCode="US " /></Location></Hotel><Hotel Code="55657" Name="Palms Casino Resort" LastUpdated="2019-06-26T16:23:24"><Location><Geo Latitude="36.1154" Longitude="-115.198162" /><Address StreetAddress="4321 West Flamingo Road" City="Las Vegas" StateProvince="NV" CountryCode="US " /></Location></Hotel><Hotel Code="57524" Name="Hard Rock Hotel and Casino" LastUpdated="2019-03-05T10:54:31"><Location><Geo Latitude="36.108822" Longitude="-115.152427" /><Address StreetAddress="4455 Paradise Road" City="Las Vegas" StateProvince="NV" CountryCode="US " /></Location></Hotel><Hotel Code="57780" Name="Santa Fe Station Hotel and Casino" LastUpdated="2016-12-30T12:38:53"><Location><Geo Latitude="36.249603" Longitude="-115.24319" /><Address StreetAddress="4949 N. Rancho Drive" City="Las Vegas" StateProvince="NV" CountryCode="US " /></Location></Hotel><Hotel Code="57818" Name="Boulder Station Hotel and Casino" LastUpdated="2019-06-18T14:10:14"><Location><Geo Latitude="36.134825" Longitude="-115.08384" /><Address StreetAddress="4111 Boulder Highway" City="Las Vegas" StateProvince="NV" CountryCode="US " /></Location></Hotel><Hotel Code="57819" Name="Fiesta Henderson Casino and Hotel" LastUpdated="2019-06-06T08:14:42"><Location><Geo Latitude="36.032321" Longitude="-115.00934" /><Address StreetAddress="777 West Lake Mead Parkway" City="Henderson" StateProvince="NV" CountryCode="US " /></Location></Hotel><Hotel Code="57820" Name="Fiesta Rancho Hotel and Casino" LastUpdated="2019-02-28T09:24:34"><Location><Geo Latitude="36.201742" Longitude="-115.19632" /><Address StreetAddress="2400 N. Rancho Drive" City="North Las Vegas" StateProvince="NV" CountryCode="US " /></Location></Hotel><Hotel Code="57821" Name="Green Valley Ranch Resort Spa Casino" LastUpdated="2018-12-21T10:00:22"><Location><Geo Latitude="36.032442" Longitude="-115.09002" /><Address StreetAddress="2300 Paseo Verde Parkway" City="Henderson" StateProvince="NV" CountryCode="US " /></Location></Hotel><Hotel Code="57822" Name="Palace Station Hotel and Casino" LastUpdated="2018-11-06T15:48:17"><Location><Geo Latitude="36.146331" Longitude="-115.1762" /><Address StreetAddress="2411 W. Sahara Avenue" City="Las Vegas" StateProvince="NV" CountryCode="US " /></Location></Hotel><Hotel Code="57823" Name="Red Rock Casino Resort Spa" LastUpdated="2019-08-02T16:12:35"><Location><Geo Latitude="36.13635" Longitude="-115.328" /><Address StreetAddress="11011 W. Charleston Blvd" City="Las Vegas" StateProvince="NV" CountryCode="US " /></Location></Hotel><Hotel Code="57824" Name="Sunset Station Hotel and Casino" LastUpdated="2018-12-03T14:09:31"><Location><Geo Latitude="36.061329" Longitude="-115.0406" /><Address StreetAddress="1301 Sunset Road" City="Henderson" StateProvince="NV" CountryCode="US " /></Location></Hotel><Hotel Code="57825" Name="Texas Station Hotel and Casino" LastUpdated="2016-12-30T12:52:17"><Location><Geo Latitude="36.198434" Longitude="-115.19092" /><Address StreetAddress="2101 Texas Star Lane" City="North Las Vegas" StateProvince="NV" CountryCode="US " /></Location></Hotel><Hotel Code="37865" Name="Wynn Las Vegas" LastUpdated="2019-07-19T14:20:09"><Location><Geo Latitude="36.12959" Longitude="-115.16632" /><Address StreetAddress="3131 Las Vegas Blvd South" City="Las Vegas" StateProvince="NV" CountryCode="US " /></Location></Hotel><Hotel Code="LASARIA" Name="ARIA Resort and Casino" LastUpdated="2019-04-01T08:43:11"><Location><Geo Latitude="36.107292" Longitude="-115.173339" /><Address StreetAddress="3730 Las Vegas Blvd., South" City="Las Vegas" StateProvince="NV" CountryCode="US " /></Location></Hotel><Hotel Code="LASBELL" Name="Bellagio" LastUpdated="2019-03-25T14:07:37"><Location><Geo Latitude="36.113919" Longitude="-115.173862" /><Address StreetAddress="3600 Las Vegas Blvd" City="Las Vegas" StateProvince="NV" CountryCode="US " /></Location></Hotel><Hotel Code="LASCALI" Name="California Hotel" LastUpdated="2019-06-24T14:08:38"><Location><Geo Latitude="36.172953" Longitude="-115.14474" /><Address StreetAddress="12 East Odgen Ave" City="Las Vegas" StateProvince="NV" CountryCode="US " /></Location></Hotel><Hotel Code="LASCIRC" Name="Circus Circus Hotel, Casino and Theme Park" LastUpdated="2018-06-20T11:46:52"><Location><Geo Latitude="36.138267" Longitude="-115.161095" /><Address StreetAddress="2880 Las Vegas Boulevard South" City="Las Vegas" StateProvince="NV" CountryCode="US " /></Location></Hotel><Hotel Code="LASELAR" Name="Elara by Hilton Grand Vacations Hotel Center Strip" LastUpdated="2019-08-07T09:44:43"><Location><Geo Latitude="36.108067" Longitude="-115.169213" /><Address StreetAddress="80 E. Harmon Avenue" City="Las Vegas" StateProvince="NV" CountryCode="US " /></Location></Hotel><Hotel Code="LASELCO" Name="El Cortez Hotel and Casino" LastUpdated="2019-04-03T12:40:32"><Location><Geo Latitude="36.1687" Longitude="-115.1395" /><Address StreetAddress="600 E. Freemont Street" City="Las Vegas" StateProvince="NV" CountryCode="US " /></Location></Hotel><Hotel Code="LASEXCA" Name="Excalibur Hotel and Casino" LastUpdated="2019-05-23T14:00:56"><Location><Geo Latitude="36.099227" Longitude="-115.172943" /><Address StreetAddress="3850 Las Vegas Blvd South" City="Las Vegas" StateProvince="NV" CountryCode="US " /></Location></Hotel><Hotel Code="LASFITZ" Name="The D Las Vegas" LastUpdated="2018-03-21T10:48:25"><Location><Geo Latitude="36.169295" Longitude="-115.143537" /><Address StreetAddress="301 Fremont Street" City="Las Vegas" StateProvince="NV" CountryCode="US " /></Location></Hotel><Hotel Code="LASFOUR" Name="Four Seasons Hotel Las Vegas" LastUpdated="2016-08-25T13:47:29"><Location><Geo Latitude="36.094322" Longitude="-115.173084" /><Address StreetAddress="3960 Las Vegas Boulevard South" City="Las Vegas" StateProvince="NV" CountryCode="US " /></Location></Hotel><Hotel Code="LASFREM" Name="Fremont Hotel" LastUpdated="2019-06-24T11:19:10"><Location><Geo Latitude="36.170747" Longitude="-115.14352" /><Address StreetAddress="200 E Fremont St" City="Las Vegas" StateProvince="NV" CountryCode="US " /></Location></Hotel><Hotel Code="LASGCHC" Name="Gold Coast Hotel and Casino" LastUpdated="2019-06-17T13:20:09"><Location><Geo Latitude="36.116797" Longitude="-115.19243" /><Address StreetAddress="4000 West Flamingo Road" City="Las Vegas" StateProvince="NV" CountryCode="US " /></Location></Hotel><Hotel Code="LASGOLD" Name="Golden Nugget" LastUpdated="2018-11-19T16:19:45"><Location><Geo Latitude="36.169598" Longitude="-115.14151" /><Address StreetAddress="129 E Fremont Street" City="Las Vegas" StateProvince="NV" CountryCode="US " /></Location></Hotel><Hotel Code="LASGRND" Name="MGM Grand Hotel and Casino" LastUpdated="2019-08-07T17:49:34"><Location><Geo Latitude="36.104415" Longitude="-115.172422" /><Address StreetAddress="3799 Las Vegas Blvd., South" City="Las Vegas" StateProvince="NV" CountryCode="US " /></Location></Hotel><Hotel Code="LASHGVC" Name="Hilton Grand Vacations Club on the Las Vegas Strip" LastUpdated="2019-08-07T02:42:58"><Location><Geo Latitude="36.14356" Longitude="-115.15732" /><Address StreetAddress="2650 Las Vegas Blvd. So." City="Las Vegas" StateProvince="NV" CountryCode="US " /></Location></Hotel><Hotel Code="LASHILN" Name="Westgate Las Vegas Resort and Casino" LastUpdated="2019-06-27T11:42:31"><Location><Geo Latitude="36.137287" Longitude="-115.154698" /><Address StreetAddress="3000 Paradise Road" City="Las Vegas" StateProvince="NV" CountryCode="US " /></Location></Hotel><Hotel Code="LASJKIE" Name="Plaza Hotel/Casino" LastUpdated="2019-08-05T10:16:21"><Location><Geo Latitude="36.171348" Longitude="-115.146322" /><Address StreetAddress="One Main Street" City="Las Vegas" StateProvince="NV" CountryCode="US " /></Location></Hotel><Hotel Code="LASLUXH" Name="Luxor Hotel and Casino" LastUpdated="2019-08-07T17:32:20"><Location><Geo Latitude="36.095942" Longitude="-115.172899" /><Address StreetAddress="3900 Las Vegas Boulevard South" City="Las Vegas" StateProvince="NV" CountryCode="US " /></Location></Hotel><Hotel Code="LASMAND" Name="Mandalay Bay Resort and Casino" LastUpdated="2019-08-07T14:39:27"><Location><Geo Latitude="36.091723" Longitude="-115.175018" /><Address StreetAddress="3950 Las Vegas Blvd. S." City="Las Vegas" StateProvince="NV" CountryCode="US " /></Location></Hotel><Hotel Code="LASMANO" Name="Mandarin Oriental Las Vegas" LastUpdated="2015-10-30T12:47:05"><Location><Geo Latitude="36.105335" Longitude="-115.173294" /><Address StreetAddress="3752 Las Vegas Boulevard South" City="Las Vegas" StateProvince="NV" CountryCode="US " /></Location></Hotel><Hotel Code="LASMIRA" Name="The Mirage Hotel and Casino" LastUpdated="2019-08-07T17:15:27"><Location><Geo Latitude="36.122026" Longitude="-115.17239" /><Address StreetAddress="3400 Las Vegas Boulevard South" City="Las Vegas" StateProvince="NV" CountryCode="US " /></Location></Hotel><Hotel Code="LASMONE" Name="Park MGM Las Vegas" LastUpdated="2019-08-07T15:10:25"><Location><Geo Latitude="36.105111" Longitude="-115.172898" /><Address StreetAddress="3770 Las Vegas Boulevard - South" City="Las Vegas" StateProvince="" CountryCode="US " /></Location></Hotel><Hotel Code="LASMSTA" Name="Main Street Station Hotel" LastUpdated="2019-06-24T14:06:12"><Location><Geo Latitude="36.174896" Longitude="-115.1451" /><Address StreetAddress="200 N Main St" City="Las Vegas" StateProvince="NV" CountryCode="US " /></Location></Hotel><Hotel Code="LASORLN" Name="The Orleans Hotel and Casino" LastUpdated="2019-06-17T13:25:11"><Location><Geo Latitude="36.100881" Longitude="-115.202124" /><Address StreetAddress="4500 West Tropicana Avenue" City="Las Vegas" StateProvince="NV" CountryCode="US " /></Location></Hotel><Hotel Code="LASQUNE" Name="Four Queens Hotel and Casino" LastUpdated="2018-10-25T15:18:15"><Location><Geo Latitude="36.170311" Longitude="-115.143664" /><Address StreetAddress="202 Fremont Street" City="Las Vegas" StateProvince="NV" CountryCode="US " /></Location></Hotel><Hotel Code="LASSAMS" Name="Sam's Town Hotel, Gambling Hall and Bowling Center" LastUpdated="2019-06-17T13:23:12"><Location><Geo Latitude="36.111801" Longitude="-115.06092" /><Address StreetAddress="5111 Boulder Highway" City="Las Vegas" StateProvince="NV" CountryCode="US " /></Location></Hotel><Hotel Code="LASSLSS" Name="SLS Las Vegas Hotel and Casino" LastUpdated="2019-07-31T12:25:19"><Location><Geo Latitude="36.142449" Longitude="-115.1566" /><Address StreetAddress="2535 S. Las Vegas Blvd." City="Las Vegas" StateProvince="NV" CountryCode="US " /></Location></Hotel><Hotel Code="LASSMGM" Name="The Signature at MGM Grand" LastUpdated="2019-04-15T10:21:37"><Location><Geo Latitude="36.10756" Longitude="-115.166" /><Address StreetAddress="145 East Harmon Avenue" City="Las Vegas" StateProvince="NV" CountryCode="US " /></Location></Hotel><Hotel Code="LASSPHC" Name="South Point Hotel and Casino" LastUpdated="2018-08-07T14:16:15"><Location><Geo Latitude="36.012355" Longitude="-115.17243" /><Address StreetAddress="9777 Las Vegas Boulevard South" City="Las Vegas" StateProvince="NV" CountryCode="US " /></Location></Hotel><Hotel Code="LASSTRA" Name="Stratosphere Casino, Hotel and Tower" LastUpdated="2019-08-16T17:11:17"><Location><Geo Latitude="36.14812" Longitude="-115.154483" /><Address StreetAddress="2000 Las Vegas Blvd. South" City="Las Vegas" StateProvince="NV" CountryCode="US " /></Location></Hotel><Hotel Code="LASSUNC" Name="Suncoast Hotel and Casino" LastUpdated="2019-06-17T13:24:01"><Location><Geo Latitude="36.169111" Longitude="-115.2913" /><Address StreetAddress="9090 Alta Drive" City="Las Vegas" StateProvince="NV" CountryCode="US " /></Location></Hotel><Hotel Code="LASTHMB" Name="Delano Las Vegas" LastUpdated="2019-04-04T13:58:31"><Location><Geo Latitude="36.091723" Longitude="-115.17427" /><Address StreetAddress="3940 Las Vegas Blvd South" City="Las Vegas" StateProvince="NV" CountryCode="US " /></Location></Hotel><Hotel Code="LASTRMP" Name="Trump International Hotel Las Vegas" LastUpdated="2015-02-23T00:00:00"><Location><Geo Latitude="36.13" Longitude="-115.17" /><Address StreetAddress="2000 Fashion Show Drive" City="Las Vegas" StateProvince="NV" CountryCode="US " /></Location></Hotel><Hotel Code="LASTROP" Name="Tropicana Las Vegas A Doubletree By Hilton Hotel" LastUpdated="2019-08-09T12:22:44"><Location><Geo Latitude="36.099777" Longitude="-115.17259" /><Address StreetAddress="3801 Las Vegas Boulevard South" City="Las Vegas" StateProvince="NV" CountryCode="US " /></Location></Hotel><Hotel Code="LASTUSC" Name="Tuscany Suites  and Casino Las Vegas" LastUpdated="2018-07-23T13:07:41"><Location><Geo Latitude="36.1141" Longitude="-115.16193" /><Address StreetAddress="255 East Flamingo Road" City="Las Vegas" StateProvince="NV" CountryCode="US " /></Location></Hotel><Hotel Code="LASVDAR" Name="Vdara Hotel and Spa at ARIA Las Vegas" LastUpdated="2018-11-26T14:09:02"><Location><Geo Latitude="36.107924" Longitude="-115.175686" /><Address StreetAddress="2600 W. Harmon Avenue" City="Las Vegas" StateProvince="NV" CountryCode="US " /></Location></Hotel><Hotel Code="LASWLAS" Name="The Westin Lake Las Vegas Resort and Spa" LastUpdated="2019-07-09T08:42:46"><Location><Geo Latitude="36.11394" Longitude="-114.92316" /><Address StreetAddress="101 Monte Lago Boulevard" City="Henderson" StateProvince="NV" CountryCode="US " /></Location></Hotel><Hotel Code="LASWYNN" Name="Wynn Las Vegas" LastUpdated="2019-07-19T14:20:09"><Location><Geo Latitude="36.12959" Longitude="-115.16632" /><Address StreetAddress="3131 Las Vegas Blvd South" City="Las Vegas" StateProvince="NV" CountryCode="US " /></Location></Hotel><Hotel Code="LASYORK" Name="New York-New York Hotel and Casino" LastUpdated="2019-08-13T10:15:59"><Location><Geo Latitude="36.10183" Longitude="-115.1728" /><Address StreetAddress="3790 Las Vegas Boulevard South" City="Las Vegas" StateProvince="NV" CountryCode="US " /></Location></Hotel><Hotel Code="TW;51546" Name="Trump International Hotel Las Vegas" LastUpdated="2018-06-27T12:13:45"><Location><Geo Latitude="36.129015" Longitude="-115.171795" /><Address StreetAddress="2000 Fashion Show Drive " City="Las Vegas" StateProvince="NV" CountryCode="US " /></Location></Hotel><Hotel Code="VC;LASVG" Name="Marriott's Grand Chateau" LastUpdated="2015-08-26T06:47:27"><Location><Geo Latitude="36.108" Longitude="-115.169215" /><Address StreetAddress="75 East Harmon Avenue " City="Las Vegas" StateProvince="NV" CountryCode="US " /></Location></Hotel><Hotel Code="WO;95812" Name="Desert Rose Resort" LastUpdated="2014-07-11T11:31:51"><Location><Geo Latitude="36.097955" Longitude="-115.167424" /><Address StreetAddress="5051 Duke Ellington " City="Las Vegas" StateProvince="NV" CountryCode="US " /></Location></Hotel><Hotel Code="WO;97093" Name="Wyndham Desert Blue" LastUpdated="2014-11-15T15:48:04"><Location><Geo Latitude="36.122741" Longitude="-115.187854" /><Address StreetAddress="3200 West Twain " City="Las Vegas" StateProvince="NV" CountryCode="US " /></Location></Hotel><Hotel Code="WO;HYFLASGD" Name="WyndhamVR Grand Desert" LastUpdated="2014-07-11T11:33:10"><Location><Geo Latitude="36.106637" Longitude="-115.160943" /><Address StreetAddress="265 East Harmon Ave " City="Las Vegas" StateProvince="NV" CountryCode="US " /></Location></Hotel><Hotel Code="WI;1448" Name="The Westin Las Vegas Hotel, Casino and Spa" LastUpdated="2016-10-12T13:29:36"><Location><Geo Latitude="36.1147" Longitude="-115.1655" /><Address StreetAddress="160 East Flamingo Road " City="Las Vegas" StateProvince="NV" CountryCode="US " /></Location></Hotel><Hotel Code="YX;68747" Name="Westgate Flamingo Bay Resort" LastUpdated="2016-07-25T11:20:57"><Location><Geo Latitude="36.114806" Longitude="-115.21813" /><Address StreetAddress="5625 W Flamingo Rd " City="Las Vegas" StateProvince="NV" CountryCode="US " /></Location></Hotel><Hotel Code="BW;29058" Name="BEST WESTERN McCarran Inn" LastUpdated="2014-12-10T00:50:44"><Location><Geo Latitude="36.099895" Longitude="-115.149155" /><Address StreetAddress="4970 Paradise Road " City="Las Vegas" StateProvince="NV" CountryCode="US " /></Location></Hotel><Hotel Code="BW;29087" Name="BEST WESTERN PLUS Casino Royale" LastUpdated="2014-12-10T00:50:44"><Location><Geo Latitude="36.120355" Longitude="-115.172205" /><Address StreetAddress="3411  Las Vegas Boulevard S " City="Las Vegas" StateProvince="NV" CountryCode="US " /></Location></Hotel><Hotel Code="BW;29089" Name="Best Western Hoover Dam Hotel" LastUpdated="2018-01-24T06:21:02"><Location><Geo Latitude="35.975121" Longitude="-114.840721" /><Address StreetAddress="704 Nevada Highway " City="Boulder City" StateProvince="NV" CountryCode="US " /></Location></Hotel><Hotel Code="HI;LASCV" Name="Holiday Inn Club Vacations LAS VEGAS - DESERT CLUB RESORT" LastUpdated="2017-07-12T03:36:00"><Location><Geo Latitude="36.11815" Longitude="-115.163979" /><Address StreetAddress="3950 Koval Lane " City="Las Vegas" StateProvince="NV" CountryCode="US " /></Location></Hotel><Hotel Code="HY;89397" Name="Hyatt Place Las Vegas" LastUpdated="2014-12-10T00:50:44"><Location><Geo Latitude="36.107248" Longitude="-115.15109" /><Address StreetAddress="4520 Paradise Rd " City="LAS VEGAS" StateProvince="NV" CountryCode="US " /></Location></Hotel></Destination><Destination CityCode="MCO"><Hotel Code="WA-ORLBC" Name="Waldorf Astoria Orlando" LastUpdated="2019-08-03T01:51:49"><Location><Geo Latitude="28.3533" Longitude="-81.53251" /><Address StreetAddress="14200 Bonnet Creek Resort Lane" City="Orlando" StateProvince="" CountryCode="US " /></Location></Hotel><Hotel Code="HT-ORLUS" Name="Home2 Suites by Hilton Orlando Near Universal" LastUpdated="2019-03-20T07:54:30"><Location><Geo Latitude="28.464342" Longitude="-81.461983" /><Address StreetAddress="5910 American Way" City="Orlando" StateProvince="" CountryCode="US " /></Location></Hotel><Hotel Code="PII-ORCE" Name="Park Inn By Radisson Resort Conference Orlando" LastUpdated="2019-06-10T14:59:59"><Location><Geo Latitude="28.336883" Longitude="-81.58813" /><Address StreetAddress="3011 Maingate Lane" City="Kissimmee" StateProvince="" CountryCode="US " /></Location></Hotel><Hotel Code="RAD-LBFL" Name="Radisson Hotel Orlando Lake Buena Vista" LastUpdated="2019-06-04T19:41:24"><Location><Geo Latitude="28.37999" Longitude="-81.50446" /><Address StreetAddress="12799 Apopka Vineland Rd" City="Orlando" StateProvince="" CountryCode="US " /></Location></Hotel><Hotel Code="HX-MCOAP" Name="Hampton Inn Orlando Airport Fl" LastUpdated="2019-07-31T01:50:22"><Location><Geo Latitude="28.460861" Longitude="-81.307803" /><Address StreetAddress="5767 T.G. Lee Blvd." City="Orlando" StateProvince="" CountryCode="US " /></Location></Hotel><Hotel Code="HX-MCOKK" Name="Hampton Inn Orlando Near Universal Blv Internation" LastUpdated="2019-08-02T13:54:46"><Location><Geo Latitude="28.459282" Longitude="-81.459375" /><Address StreetAddress="7110 S. Kirkman Road" City="Orlando" StateProvince="" CountryCode="US " /></Location></Hotel><Hotel Code="HX-MCOLV" Name="Hampton Inn Lake Buena Vista Orlando" LastUpdated="2019-07-18T07:50:23"><Location><Geo Latitude="28.389961" Longitude="-81.496184" /><Address StreetAddress="8150 Palm Parkway" City="Orlando" StateProvince="" CountryCode="US " /></Location></Hotel><Hotel Code="HX-MCOWH" Name="Hampton Inn Closest To Universal Orlando" LastUpdated="2019-06-25T01:55:05"><Location><Geo Latitude="28.485601" Longitude="-81.458092" /><Address StreetAddress="5621 Windhover Drive" City="Orlando" StateProvince="" CountryCode="US " /></Location></Hotel><Hotel Code="HH-MCOBU" Name="Hilton Orlando Buena Vista Palace Disney Springs A" LastUpdated="2019-08-12T01:48:14"><Location><Geo Latitude="28.37672" Longitude="-81.515137" /><Address StreetAddress="1900 E. Buena Vista Drive" City="Lake Buena Vista" StateProvince="" CountryCode="US " /></Location></Hotel><Hotel Code="HH-MCOMD" Name="Parc Soleil By Hilton Grand Vacations" LastUpdated="2019-08-09T01:50:03"><Location><Geo Latitude="28.399566" Longitude="-81.492361" /><Address StreetAddress="11272 Desforges Avenue" City="Orlando" StateProvince="" CountryCode="US " /></Location></Hotel><Hotel Code="HH-ORLDW" Name="Hilton Orlando Lake Buena Vista Disney Springs A" LastUpdated="2019-08-04T01:31:24"><Location><Geo Latitude="28.3731" Longitude="-81.5127" /><Address StreetAddress="1751 Hotel Plaza Boulevard" City="Lake Buena Vista" StateProvince="" CountryCode="US " /></Location></Hotel><Hotel Code="HH-ORLHH" Name="Hilton Orlando Bonnet Creek" LastUpdated="2019-08-02T01:41:35"><Location><Geo Latitude="28.356142" Longitude="-81.53403" /><Address StreetAddress="14100 Bonnet Creek Resort Lane" City="Orlando" StateProvince="" CountryCode="US " /></Location></Hotel><Hotel Code="HH-ORLIN" Name="Hilton Grand Vacations At Tuscany Village" LastUpdated="2019-08-09T01:33:29"><Location><Geo Latitude="28.3852" Longitude="-81.488" /><Address StreetAddress="8122 Arrezzo Way" City="Orlando" StateProvince="" CountryCode="US " /></Location></Hotel><Hotel Code="HH-ORLOC" Name="Hilton Orlando" LastUpdated="2019-08-05T07:29:51"><Location><Geo Latitude="28.425" Longitude="-81.4578" /><Address StreetAddress="6001 Destination Parkway" City="Orlando" StateProvince="" CountryCode="US " /></Location></Hotel><Hotel Code="HH-ORLSW" Name="Hilton Grand Vacations At Seaworld" LastUpdated="2019-08-06T13:40:20"><Location><Geo Latitude="28.4066" Longitude="-81.4699" /><Address StreetAddress="6924 Grand Vacations Way" City="Orlando" StateProvince="" CountryCode="US " /></Location></Hotel><Hotel Code="HG-MCOCV" Name="Homewood Suites By Hilton Orlando Intl Drive Conve" LastUpdated="2019-08-03T01:48:51"><Location><Geo Latitude="28.437251" Longitude="-81.469914" /><Address StreetAddress="8745 International Drive" City="Orlando" StateProvince="" CountryCode="US " /></Location></Hotel><Hotel Code="HH-ALTAH" Name="Hilton Orlando Altamonte Springs" LastUpdated="2019-08-03T07:06:17"><Location><Geo Latitude="28.6569" Longitude="-81.3861" /><Address StreetAddress="350 Northlake Blvd" City="Altamonte Springs" StateProvince="" CountryCode="US " /></Location></Hotel><Hotel Code="GI-ORLSE" Name="Hilton Garden Inn Orlando At Seaworld" LastUpdated="2019-06-25T01:33:23"><Location><Geo Latitude="28.410363" Longitude="-81.471899" /><Address StreetAddress="6850 Westwood Boulevard" City="Orlando" StateProvince="" CountryCode="US " /></Location></Hotel><Hotel Code="ES-MCOAT" Name="Embassy Suites By Hilton Orlando Airport" LastUpdated="2019-06-24T07:42:14"><Location><Geo Latitude="28.460634" Longitude="-81.305676" /><Address StreetAddress="5835 T. G. Lee Boulevard" City="Orlando" StateProvince="" CountryCode="US " /></Location></Hotel><Hotel Code="ES-MCOWD" Name="Embassy Suites By Hilton Orlando Lake Buena Vista" LastUpdated="2019-08-03T01:47:43"><Location><Geo Latitude="28.39118" Longitude="-81.494318" /><Address StreetAddress="8100 Lake Street" City="Orlando" StateProvince="" CountryCode="US " /></Location></Hotel><Hotel Code="DT-MCOOD" Name="Doubletree By Hilton Orlando Downtown" LastUpdated="2019-08-02T19:54:40"><Location><Geo Latitude="28.558977" Longitude="-81.378807" /><Address StreetAddress="60 South Ivanhoe Boulevard" City="Orlando" StateProvince="" CountryCode="US " /></Location></Hotel><Hotel Code="DT-MCOSR" Name="Doubletree By Hilton Orlando At Seaworld" LastUpdated="2019-08-11T19:49:31"><Location><Geo Latitude="28.419098" Longitude="-81.460082" /><Address StreetAddress="10100 International Drive" City="Orlando" StateProvince="" CountryCode="US " /></Location></Hotel><Hotel Code="DT-MCOUN" Name="Doubletree By Hilton At The Entrance To Universal" LastUpdated="2019-08-03T01:47:24"><Location><Geo Latitude="28.4786" Longitude="-81.457" /><Address StreetAddress="5780 Major Blvd." City="Orlando" StateProvince="" CountryCode="US " /></Location></Hotel><Hotel Code="CHI-OIDS" Name="Country Inn Suites By Radisson, Orlando, Fl" LastUpdated="2019-07-23T19:10:03"><Location><Geo Latitude="28.45247" Longitude="-81.464428" /><Address StreetAddress="7701 Universal Boulevard" City="Orlando" StateProvince="" CountryCode="US " /></Location></Hotel><Hotel Code="CHI-ORIA" Name="Country Inn Suites By Radisson, Orlando Air, Fl" LastUpdated="2019-06-25T19:05:34"><Location><Geo Latitude="28.459882" Longitude="-81.313824" /><Address StreetAddress="5440 Forbes Place" City="Orlando" StateProvince="" CountryCode="US " /></Location></Hotel><Hotel Code="11" Name="Disney's Saratoga Springs Resort and Spa" LastUpdated="2019-02-13T05:21:55"><Location><Geo Latitude="28.369954" Longitude="-81.501178" /><Address StreetAddress="1960 Broadway" City="Lake Buena Vista" StateProvince="FL" CountryCode="US " /></Location></Hotel><Hotel Code="12" Name="Disney's Animal Kingdom Villas - Jambo House" LastUpdated="2019-02-15T04:15:02"><Location><Geo Latitude="28.3484" Longitude="-81.5625" /><Address StreetAddress="2901 Osceola Parkway" City="Lake Buena Vista" StateProvince="FL" CountryCode="US " /></Location></Hotel><Hotel Code="13" Name="Disney's Animal Kingdom Villas - Kidani Village" LastUpdated="2019-02-15T01:26:58"><Location><Geo Latitude="28.3484" Longitude="-81.5625" /><Address StreetAddress="3701 Osceola Parkway" City="Lake Buena Vista" StateProvince="FL" CountryCode="US " /></Location></Hotel><Hotel Code="14" Name="Bay Lake Tower at Disney's Contemporary Resort" LastUpdated="2019-02-15T01:14:02"><Location><Geo Latitude="28.416357" Longitude="-81.573593" /><Address StreetAddress="4600 N. World Drive" City="Lake Buena Vista" StateProvince="FL" CountryCode="US " /></Location></Hotel><Hotel Code="1A" Name="Disney's All Star Music Resort" LastUpdated="2019-03-14T06:43:24"><Location><Geo Latitude="28.339707" Longitude="-81.572786" /><Address StreetAddress="1801 West Buena Vista Drive" City="Lake Buena Vista" StateProvince="FL" CountryCode="US " /></Location></Hotel><Hotel Code="1B" Name="Disney's Grand Floridian Resort and Spa" LastUpdated="2019-02-13T00:53:37"><Location><Geo Latitude="28.4089" Longitude="-81.5892" /><Address StreetAddress="4401 Grand Floridian Way" City="Lake Buena Vista" StateProvince="FL" CountryCode="US " /></Location></Hotel><Hotel Code="1C" Name="Disney's Contemporary Resort" LastUpdated="2019-06-19T05:32:03"><Location><Geo Latitude="28.414" Longitude="-81.576" /><Address StreetAddress="4600 North World Drive" City="Orlando" StateProvince="FL" CountryCode="US " /></Location></Hotel><Hotel Code="1D" Name="Disney's Beach Club Villas" LastUpdated="2019-02-15T04:20:58"><Location><Geo Latitude="28.3736" Longitude="-81.5555" /><Address StreetAddress="1800 Epcot Resorts Blvd." City="Lake Buena Vista" StateProvince="FL" CountryCode="US " /></Location></Hotel><Hotel Code="1E" Name="Disney's All Star Movies Resort" LastUpdated="2019-03-13T23:15:22"><Location><Geo Latitude="28.336162" Longitude="-81.572221" /><Address StreetAddress="1901 West Buena Vista Dr." City="Lake Buena Vista" StateProvince="FL" CountryCode="US " /></Location></Hotel><Hotel Code="1FW" Name="The Cabins at Disney's Fort Wilderness Resort" LastUpdated="2019-02-14T00:46:03"><Location><Geo Latitude="28.395772" Longitude="-81.553653" /><Address StreetAddress="4510 North Fort Wilderness Trail" City="Lake Buena Vista" StateProvince="FL" CountryCode="US " /></Location></Hotel><Hotel Code="1G" Name="Disney's Pop Century Resort" LastUpdated="2019-06-13T00:29:22"><Location><Geo Latitude="28.348926" Longitude="-81.541099" /><Address StreetAddress="1050 Century Drive" City="Lake Buena Vista" StateProvince="FL" CountryCode="US " /></Location></Hotel><Hotel Code="1I" Name="Disney's Boardwalk Inn" LastUpdated="2019-02-15T01:31:50"><Location><Geo Latitude="28.3668" Longitude="-81.554" /><Address StreetAddress="2101 North Epcot Resorts Boulevard" City="Lake Buena Vista" StateProvince="FL" CountryCode="US " /></Location></Hotel><Hotel Code="1J" Name="Disney's Wilderness Lodge" LastUpdated="2019-03-14T06:41:23"><Location><Geo Latitude="28.4092" Longitude="-81.5735" /><Address StreetAddress="901 Timberline Drive" City="Lake Buena Vista" StateProvince="FL" CountryCode="US " /></Location></Hotel><Hotel Code="1K" Name="Disney's Old Key West Resort" LastUpdated="2019-02-14T05:31:20"><Location><Geo Latitude="28.3758" Longitude="-81.5335" /><Address StreetAddress="1510 North Cove Road" City="Lake Buena Vista" StateProvince="FL" CountryCode="US " /></Location></Hotel><Hotel Code="1L" Name="Disney's Port Orleans Resort - Riverside" LastUpdated="2019-02-15T04:43:23"><Location><Geo Latitude="28.3802" Longitude="-81.5384" /><Address StreetAddress="1251 Riverside Drive" City="Lake Buena Vista" StateProvince="FL" CountryCode="US " /></Location></Hotel><Hotel Code="1N" Name="Disney's Coronado Springs Resort" LastUpdated="2019-03-27T10:39:22"><Location><Geo Latitude="28.362145" Longitude="-81.573452" /><Address StreetAddress="1000 W Buena Vista Dr" City="Orlando" StateProvince="FL" CountryCode="US " /></Location></Hotel><Hotel Code="1O" Name="Disney's Port Orleans Resort - French Quarter" LastUpdated="2019-03-14T04:40:55"><Location><Geo Latitude="28.379075" Longitude="-81.535133" /><Address StreetAddress="2201 Orleans Drive" City="Lake Buena Vista" StateProvince="FL" CountryCode="US " /></Location></Hotel><Hotel Code="1P" Name="Disney's Polynesian Village Resort" LastUpdated="2019-02-14T00:16:21"><Location><Geo Latitude="28.404973" Longitude="-81.580178" /><Address StreetAddress="1600 Seven Seas Drive" City="Lake Buena Vista" StateProvince="FL" CountryCode="US " /></Location></Hotel><Hotel Code="1Q" Name="Disney's Animal Kingdom Lodge" LastUpdated="2019-03-14T01:11:05"><Location><Geo Latitude="28.3484" Longitude="-81.5625" /><Address StreetAddress="2901 Osceola Parkway" City="Lake Buena Vista" StateProvince="FL" CountryCode="US " /></Location></Hotel><Hotel Code="1R" Name="Disney's Caribbean Beach Resort" LastUpdated="2019-02-13T02:17:57"><Location><Geo Latitude="28.367" Longitude="-81.542999" /><Address StreetAddress="900 Cayman Way" City="Lake Buena Vista" StateProvince="FL" CountryCode="US " /></Location></Hotel><Hotel Code="1S" Name="Disney's All Star Sports Resort" LastUpdated="2019-02-15T03:44:12"><Location><Geo Latitude="28.343697" Longitude="-81.575731" /><Address StreetAddress="1701 West Buena Vista Drive" City="Lake Buena Vista" StateProvince="FL" CountryCode="US " /></Location></Hotel><Hotel Code="1V" Name="Disney's Art of Animation Resort" LastUpdated="2019-02-13T04:56:06"><Location><Geo Latitude="28.353356" Longitude="-81.547958" /><Address StreetAddress="1850 Animation Way" City="Lake Buena Vista" StateProvince="FL" CountryCode="US " /></Location></Hotel><Hotel Code="1W" Name="Disney's Beach Club Resort" LastUpdated="2019-02-14T03:23:10"><Location><Geo Latitude="28.375653" Longitude="-81.555866" /><Address StreetAddress="1800 Epcot Resorts Boulevard" City="Lake Buena Vista" StateProvince="FL" CountryCode="US " /></Location></Hotel><Hotel Code="1X" Name="Boulder Ridge Villas at Disney's Wilderness Lodge" LastUpdated="2019-03-15T01:51:20"><Location><Geo Latitude="28.4076" Longitude="-81.5726" /><Address StreetAddress="901 Timberline Drive" City="Lake Buena Vista" StateProvince="FL" CountryCode="US " /></Location></Hotel><Hotel Code="1Y" Name="Disney's Yacht Club Resort" LastUpdated="2019-02-13T01:00:10"><Location><Geo Latitude="28.3728" Longitude="-81.56" /><Address StreetAddress="1700 Epcot Resorts Blvd." City="Lake Buena Vista" StateProvince="FL" CountryCode="US " /></Location></Hotel><Hotel Code="1Z" Name="Disney's BoardWalk Villas" LastUpdated="2019-02-13T06:13:26"><Location><Geo Latitude="28.3668" Longitude="-81.554" /><Address StreetAddress="2101 North Epcot Resorts Boulevard" City="Lake Buena Vista" StateProvince="FL" CountryCode="US " /></Location></Hotel><Hotel Code="60331" Name="Universal's Cabana Bay Beach Resort" LastUpdated="2018-12-14T09:44:24"><Location><Geo Latitude="28.46621" Longitude="-81.47479" /><Address StreetAddress="6550 Adventure Way" City="Orlando" StateProvince="FL" CountryCode="US " /></Location></Hotel><Hotel Code="46512" Name="Universal's Loews Portofino Bay Hotel" LastUpdated="2018-07-20T13:50:04"><Location><Geo Latitude="28.478948" Longitude="-81.463713" /><Address StreetAddress="5601 Universal Blvd" City="Orlando" StateProvince="FL" CountryCode="US " /></Location></Hotel><Hotel Code="46513" Name="Universal's Hard Rock Hotel" LastUpdated="2018-07-20T13:15:11"><Location><Geo Latitude="28.480056" Longitude="-81.46435" /><Address StreetAddress="5800 Universal Boulevard" City="ORLANDO" StateProvince="FL" CountryCode="US " /></Location></Hotel><Hotel Code="46514" Name="Universal's Loews Royal Pacific Resort" LastUpdated="2018-07-20T14:57:35"><Location><Geo Latitude="28.467639" Longitude="-81.467135" /><Address StreetAddress="6300 Hollywood Way" City="Orlando" StateProvince="FL" CountryCode="US " /></Location></Hotel><Hotel Code="70789" Name="Universal's Loews Sapphire Falls Resort" LastUpdated="2018-07-20T15:32:37"><Location><Geo Latitude="28.466513" Longitude="-81.471968" /><Address StreetAddress="6601 Adventure Way" City="Orlando" StateProvince="FL" CountryCode="US " /></Location></Hotel><Hotel Code="66970" Name="Tuscana Orlando by Aston" LastUpdated="2018-11-15T10:43:08"><Location><Geo Latitude="28.269046" Longitude="-81.610458" /><Address StreetAddress="1395 Tuscana Lane" City="Champions Gate" StateProvince="FL" CountryCode="US " /></Location></Hotel><Hotel Code="78256" Name="Universal's Endless Summer Resort - Surfside Inn and Suites" LastUpdated="2018-09-11T10:29:41"><Location><Geo Latitude="28.460449" Longitude="-81.464118" /><Address StreetAddress="7000 Universal Boulevard" City="Orlando" StateProvince="FL" CountryCode="US " /></Location></Hotel><Hotel Code="78694" Name="Universal's Endless Summer Resort - Dockside Inn and Suites" LastUpdated="2019-06-10T11:10:13"><Location><Geo Latitude="28.459297" Longitude="-81.462062" /><Address StreetAddress="7125 Universal Boulevard" City="Orlando" StateProvince="FL" CountryCode="US " /></Location></Hotel><Hotel Code="74851" Name="Universal's Aventura Hotel" LastUpdated="2018-07-20T12:56:50"><Location><Geo Latitude="28.4662" Longitude="-81.472" /><Address StreetAddress="6725 Adventure Way" City="Orlando" StateProvince="FL" CountryCode="US " /></Location></Hotel><Hotel Code="MCOBRES" Name="B Resort and Spa Lake Buena Vista" LastUpdated="2019-07-16T14:09:30"><Location><Geo Latitude="28.376781" Longitude="-81.506921" /><Address StreetAddress="1905 Hotel Plaza Blvd" City="Lake Buena Vista" StateProvince="FL" CountryCode="US " /></Location></Hotel><Hotel Code="MCOBVPH" Name="Hilton Orlando Buena Vista Palace" LastUpdated="2019-07-11T13:15:42"><Location><Geo Latitude="28.352221" Longitude="-81.487454" /><Address StreetAddress="1900 East Buena Vista Drive" City="Orlando" StateProvince="FL" CountryCode="US " /></Location></Hotel><Hotel Code="MCOBWBV" Name="Buena Vista Suites" LastUpdated="2019-05-08T09:00:07"><Location><Geo Latitude="28.356039" Longitude="-81.49243" /><Address StreetAddress="8203 World Center Drive" City="Orlando" StateProvince="FL" CountryCode="US " /></Location></Hotel><Hotel Code="MCOCESU" Name="Celebration Suites" LastUpdated="2019-05-15T13:18:10"><Location><Geo Latitude="28.332516" Longitude="-81.516806" /><Address StreetAddress="5820 West Irlo Bronson Memorial Highway" City="Kissimmee" StateProvince="FL" CountryCode="US " /></Location></Hotel><Hotel Code="MCOCOCO" Name="Coco Key Hotel and Water Resort - Orlando" LastUpdated="2019-07-25T08:41:34"><Location><Geo Latitude="28.454395" Longitude="-81.471165" /><Address StreetAddress="7400 Inernational Dr." City="Orlando" StateProvince="FL" CountryCode="US " /></Location></Hotel><Hotel Code="MCOCRBE" Name="Caribe Royale Suites and Villas" LastUpdated="2019-03-23T09:06:08"><Location><Geo Latitude="28.358418" Longitude="-81.492913" /><Address StreetAddress="8101 World Center Drive" City="Orlando" StateProvince="FL" CountryCode="US " /></Location></Hotel><Hotel Code="MCODOLP" Name="Walt Disney World Dolphin Resort" LastUpdated="2019-05-16T07:55:58"><Location><Geo Latitude="28.369076" Longitude="-81.562401" /><Address StreetAddress="1500 Epcot Resorts Boulevard" City="Lake Buena Vista" StateProvince="FL" CountryCode="US " /></Location></Hotel><Hotel Code="MCOEBID" Name="Embassy Suites Hotel Orlando Int'l Drive South" LastUpdated="2017-06-08T11:23:14"><Location><Geo Latitude="28.437591" Longitude="-81.472292" /><Address StreetAddress="8978 International Drive" City="Orlando" StateProvince="FL" CountryCode="US " /></Location></Hotel><Hotel Code="MCOFANT" Name="Fantasy World Resort" LastUpdated="2015-07-13T11:01:13"><Location><Geo Latitude="28.335541" Longitude="-81.485261" /><Address StreetAddress="5005 Kyng's Heath Road, Kissimmee" City="Orlando" StateProvince="FL" CountryCode="US " /></Location></Hotel><Hotel Code="MCOFDAY" Name="Floridays Resort" LastUpdated="2019-08-07T04:27:43"><Location><Geo Latitude="28.389602" Longitude="-81.481909" /><Address StreetAddress="12562 International Drive" City="Orlando" StateProvince="FL" CountryCode="US " /></Location></Hotel><Hotel Code="MCOGRVA" Name="Grande Villas" LastUpdated="2018-10-03T13:00:19"><Location><Geo Latitude="28.389775" Longitude="-81.500329" /><Address StreetAddress="12118 Turtle Cay Circle" City="Orlando" StateProvince="FL" CountryCode="US " /></Location></Hotel><Hotel Code="MCOHDIC" Name="Holiday Inn Club Vacations at Orange Lake Resort" LastUpdated="2019-07-15T02:22:34"><Location><Geo Latitude="28.347079" Longitude="-81.627828" /><Address StreetAddress="8505 W. Irlo Bronson Memorial Hwy." City="Kissimmee" StateProvince="FL" CountryCode="US " /></Location></Hotel><Hotel Code="MCOHIDS" Name="Holiday Inn Orlando - Disney Springs Area" LastUpdated="2019-05-21T05:25:33"><Location><Geo Latitude="28.375241" Longitude="-81.508132" /><Address StreetAddress="1805 Hotel Plaza Boulevard" City="Lake Buena Vista" StateProvince="FL" CountryCode="US " /></Location></Hotel><Hotel Code="MCOHIMG" Name="Holiday Inn Orlando SW Celebration Area" LastUpdated="2019-07-09T06:46:05"><Location><Geo Latitude="28.332957" Longitude="-81.513285" /><Address StreetAddress="5711 W. Irlo Bronson Memorial Hwy" City="Kissimmee" StateProvince="FL" CountryCode="US " /></Location></Hotel><Hotel Code="MCOHIUN" Name="Holiday Inn and Suites Across From Universal Orlando" LastUpdated="2018-10-03T16:26:10"><Location><Geo Latitude="28.476545" Longitude="-81.457798" /><Address StreetAddress="5905 Kirkman Road" City="Orlando" StateProvince="FL" CountryCode="US " /></Location></Hotel><Hotel Code="MCOHLBV" Name="Hilton Orlando Lake Buena Vista" LastUpdated="2018-10-03T17:21:28"><Location><Geo Latitude="28.3731" Longitude="-81.5127" /><Address StreetAddress="1751 Hotel Plaza Boulevard " City="Lake Buena Vista" StateProvince="FL" CountryCode="US " /></Location></Hotel><Hotel Code="MCOHOBC" Name="Hilton Orlando Bonnet Creek" LastUpdated="2018-11-10T10:10:28"><Location><Geo Latitude="28.356142" Longitude="-81.53403" /><Address StreetAddress="14100 Bonnet Creek Resort Lane" City="Orlando" StateProvince="FL" CountryCode="US " /></Location></Hotel><Hotel Code="MCOHRGC" Name="Hyatt Regency Grand Cypress" LastUpdated="2019-07-23T04:16:59"><Location><Geo Latitude="28.381577" Longitude="-81.512969" /><Address StreetAddress="One Grand Cypress Boulevard" City="Orlando , FL 32836" StateProvince="FL" CountryCode="US " /></Location></Hotel><Hotel Code="MCOHRLV" Name="Holiday Inn Resort Orlando Lake Buena Vista" LastUpdated="2019-06-18T09:59:01"><Location><Geo Latitude="28.41558" Longitude="-81.5749" /><Address StreetAddress="13351 State Road 535" City="Orlando, FL 32821" StateProvince="FL" CountryCode="US " /></Location></Hotel><Hotel Code="MCOINPR" Name="International Palms Resort - Orlando" LastUpdated="2016-07-29T16:29:22"><Location><Geo Latitude="28.458788" Longitude="-81.470522" /><Address StreetAddress="6515 International Drive" City="Orlando" StateProvince="FL" CountryCode="US " /></Location></Hotel><Hotel Code="MCOJWMA" Name="JW Marriott Orlando, Grande Lakes" LastUpdated="2018-03-08T11:18:47"><Location><Geo Latitude="28.413854" Longitude="-81.469963" /><Address StreetAddress="4040 Central Floriday Parkway" City="Orlando" StateProvince="FL" CountryCode="US " /></Location></Hotel><Hotel Code="MCOLBVR" Name="Lake Buena Vista Resort Village and Spa" LastUpdated="2019-07-03T01:06:49"><Location><Geo Latitude="28.352413" Longitude="-81.486915" /><Address StreetAddress="8113 Resort Village Drive" City="Orlando" StateProvince="FL" CountryCode="US " /></Location></Hotel><Hotel Code="MCOLITI" Name="Liki Tiki Village" LastUpdated="2018-09-27T15:13:25"><Location><Geo Latitude="28.35066" Longitude="-81.655757" /><Address StreetAddress="17777 Bali Blvd" City="Kissimmee" StateProvince="FL" CountryCode="US " /></Location></Hotel><Hotel Code="MCOLVCO" Name="Legacy Vacation Club Orlando Kissimmee" LastUpdated="2019-06-11T17:01:27"><Location><Geo Latitude="28.329515" Longitude="-81.490575" /><Address StreetAddress="2800 N Poinciana Blvd" City="Kissimmee" StateProvince="FL" CountryCode="US " /></Location></Hotel><Hotel Code="MCOMARG" Name="Margaritaville Resort Orlando" LastUpdated="2019-08-13T09:35:49"><Location><Geo Latitude="28.34197" Longitude="-81.61223" /><Address StreetAddress="8000 Fins Up Circle Kissimmee, FL 34747" City="Orlando" StateProvince="FL" CountryCode="US " /></Location></Hotel><Hotel Code="MCOMYSD" Name="Mystic Dunes Resort And Golf Club" LastUpdated="2019-03-19T17:57:56"><Location><Geo Latitude="28.31708" Longitude="-81.591877" /><Address StreetAddress="7600 Mystic Dunes Lane" City="Celebration" StateProvince="FL" CountryCode="US " /></Location></Hotel><Hotel Code="MCOMYST" Name="Mystic Dunes Resort And Golf Club" LastUpdated="2017-04-10T12:42:52"><Location><Geo Latitude="28.31708" Longitude="-81.591877" /><Address StreetAddress="7600 Mystic Dunes Lane" City="Celebration" StateProvince="FL" CountryCode="US " /></Location></Hotel><Hotel Code="MCONICK" Name="Holiday Inn Resort Orlando Suites - Waterpark" LastUpdated="2019-02-19T00:43:53"><Location><Geo Latitude="28.356671" Longitude="-81.511411" /><Address StreetAddress="14500 Continental Gateway" City="Orlando" StateProvince="FL" CountryCode="US " /></Location></Hotel><Hotel Code="MCOOBED" Name="Disney Area 3 Bedroom Homes" LastUpdated="2019-03-18T23:14:31"><Location><Geo Latitude="28.344929" Longitude="-81.612275" /><Address StreetAddress="Welcome Center Address: 3204 Rolling Oaks Blvd, Kissimmee" City="Orlando" StateProvince="FL" CountryCode="US " /></Location></Hotel><Hotel Code="MCOOBEE" Name="Disney Area 4 Bedroom Homes" LastUpdated="2019-04-15T09:14:53"><Location><Geo Latitude="28.344929" Longitude="-81.612275" /><Address StreetAddress="Welcome Center Address: 3204 Rolling Oaks Blvd, Kissimmee" City="Orlando" StateProvince="FL" CountryCode="US " /></Location></Hotel><Hotel Code="MCOOBEF" Name="Disney Area 5 Bedroom Homes" LastUpdated="2019-04-24T15:48:05"><Location><Geo Latitude="28.344929" Longitude="-81.612275" /><Address StreetAddress="Welcome Center Address: 3204 Rolling Oaks Blvd, Kissimmee" City="Orlando" StateProvince="FL" CountryCode="US " /></Location></Hotel><Hotel Code="MCOOBEG" Name="Disney Area 6 Bedroom Homes" LastUpdated="2019-04-25T06:02:00"><Location><Geo Latitude="28.344929" Longitude="-81.612275" /><Address StreetAddress="Welcome Center Address: 3204 Rolling Oaks Blvd, Kissimmee" City="Orlando" StateProvince="FL" CountryCode="US " /></Location></Hotel><Hotel Code="MCOOMCG" Name="Omni Orlando Resort at ChampionsGate" LastUpdated="2019-08-14T10:01:44"><Location><Geo Latitude="28.261995" Longitude="-81.626977" /><Address StreetAddress="1500 Masters Boulevard" City="Champions Gate" StateProvince="FL" CountryCode="US " /></Location></Hotel><Hotel Code="MCOQIIN" Name="Rosen Inn International" LastUpdated="2019-04-16T08:44:49"><Location><Geo Latitude="28.453421" Longitude="-81.471454" /><Address StreetAddress="7600 International Dr." City="Orlando" StateProvince="FL" CountryCode="US " /></Location></Hotel><Hotel Code="MCOQUAL" Name="Rosen Inn at Pointe Orlando" LastUpdated="2019-04-13T14:27:48"><Location><Geo Latitude="28.434528" Longitude="-81.472724" /><Address StreetAddress="9000 International Drive" City="Orlando" StateProvince="FL" CountryCode="US " /></Location></Hotel><Hotel Code="MCORCTR" Name="Rosen Centre Hotel" LastUpdated="2018-07-11T14:12:51"><Location><Geo Latitude="28.424637" Longitude="-81.46411" /><Address StreetAddress="9840 International Drive" City="Orlando" StateProvince="FL" CountryCode="US " /></Location></Hotel><Hotel Code="MCORITZ" Name="The Ritz-Carlton Orlando, Grande Lakes" LastUpdated="2018-12-18T12:34:54"><Location><Geo Latitude="28.410238" Longitude="-81.42574" /><Address StreetAddress="4012 Central Florida Parkway" City="Orlando" StateProvince="FL" CountryCode="US " /></Location></Hotel><Hotel Code="MCOROPL" Name="Rosen Plaza Hotel" LastUpdated="2018-07-24T16:23:11"><Location><Geo Latitude="28.429921" Longitude="-81.471927" /><Address StreetAddress="9700 International Drive" City="Orlando" StateProvince="FL" CountryCode="US " /></Location></Hotel><Hotel Code="MCORSCK" Name="Rosen Shingle Creek" LastUpdated="2019-05-17T05:43:19"><Location><Geo Latitude="28.425504" Longitude="-81.434604" /><Address StreetAddress="9939 Universal Blvd." City="Orlando" StateProvince="FL" CountryCode="US " /></Location></Hotel><Hotel Code="MCOSERA" Name="Seralago Hotel and Suites Main Gate East" LastUpdated="2018-09-12T15:35:03"><Location><Geo Latitude="28.3323" Longitude="-81.511883" /><Address StreetAddress="5678 W. Irlo Bronson Memorial Hwy" City="Kissimmee" StateProvince="FL" CountryCode="US " /></Location></Hotel><Hotel Code="MCOSONE" Name="Sonesta ES Suites Orlando" LastUpdated="2019-07-01T12:16:15"><Location><Geo Latitude="28.442469" Longitude="-81.471241" /><Address StreetAddress="8480 International Drive" City="Orlando" StateProvince="FL" CountryCode="US " /></Location></Hotel><Hotel Code="MCOSWAN" Name="Walt Disney World Swan" LastUpdated="2019-05-16T07:56:59"><Location><Geo Latitude="28.368048" Longitude="-81.561402" /><Address StreetAddress="1200 Epcot Resorts Blvd" City="Orlando" StateProvince="FL" CountryCode="US " /></Location></Hotel><Hotel Code="MCOTUSC" Name="Tuscana Orlando by Aston" LastUpdated="2018-11-15T10:43:08"><Location><Geo Latitude="28.269046" Longitude="-81.610458" /><Address StreetAddress="1395 Tuscana Lane" City="Champions Gate" StateProvince="FL" CountryCode="US " /></Location></Hotel><Hotel Code="MCOTWIN" Name="Doubletree by Hilton at The Entrance to Universal Orlando®" LastUpdated="2017-07-07T09:21:49"><Location><Geo Latitude="28.47851" Longitude="-81.45762" /><Address StreetAddress="5780 Major Blvd" City="Orlando" StateProvince="FL" CountryCode="US " /></Location></Hotel><Hotel Code="MCOVIST" Name="Sheraton Vistana Villages Resort Villas, I-Drive/Orlando" LastUpdated="2018-04-04T14:55:43"><Location><Geo Latitude="28.384323" Longitude="-81.485462" /><Address StreetAddress="12401 International Drive" City="Orlando" StateProvince="FL" CountryCode="US " /></Location></Hotel><Hotel Code="MCOVSTA" Name="Sheraton Vistana Resort Villas, Lake Buena Vista/Orlando" LastUpdated="2018-06-28T16:06:44"><Location><Geo Latitude="28.367626" Longitude="-81.504417" /><Address StreetAddress="8800 Vistana Center Drive" City="Lake Buena Vista" StateProvince="FL" CountryCode="US " /></Location></Hotel><Hotel Code="MCOWAOL" Name="Waldorf Astoria Orlando" LastUpdated="2019-04-24T07:56:06"><Location><Geo Latitude="28.3533" Longitude="-81.53251" /><Address StreetAddress="14200 Bonnet Creek Resort Lane" City="Orlando" StateProvince="FL" CountryCode="US " /></Location></Hotel><Hotel Code="MCOWBTR" Name="Westgate Blue Tree Resort" LastUpdated="2018-06-03T14:37:50"><Location><Geo Latitude="28.388765" Longitude="-81.503311" /><Address StreetAddress="12007 Cypress Run Road" City="Orlando" StateProvince="FL" CountryCode="US " /></Location></Hotel><Hotel Code="MCOWEST" Name="Westgate Lakes Resort and Spa" LastUpdated="2019-03-18T16:30:30"><Location><Geo Latitude="28.425756" Longitude="-81.476766" /><Address StreetAddress="9500 Turkey Lake Road" City="Orlando" StateProvince="FL" CountryCode="US " /></Location></Hotel><Hotel Code="MCOWLRS" Name="Westgate Towers Resort" LastUpdated="2018-06-04T16:05:09"><Location><Geo Latitude="28.334014" Longitude="-81.591458" /><Address StreetAddress="7600 West Irlo Bronson Highway" City="Kissimmee" StateProvince="FL" CountryCode="US " /></Location></Hotel><Hotel Code="MCOWPAL" Name="Westgate Palace Resort" LastUpdated="2019-03-18T16:38:39"><Location><Geo Latitude="28.456902" Longitude="-81.465517" /><Address StreetAddress="6145 Carrier Drive" City="Orlando" StateProvince="FL" CountryCode="US " /></Location></Hotel><Hotel Code="MCOWQOR" Name="WorldQuest Orlando Resort" LastUpdated="2019-06-12T12:24:39"><Location><Geo Latitude="1.795151" Longitude="-88.414263" /><Address StreetAddress="8849 WorldQuest Blvd" City="Orlando" StateProvince="FL" CountryCode="US " /></Location></Hotel><Hotel Code="MCOWVRS" Name="Westgate Vacation Villas Resort and Spa" LastUpdated="2019-03-18T16:18:43"><Location><Geo Latitude="28.329927" Longitude="-81.598114" /><Address StreetAddress="7700 Westgate Boulevard" City="Orlando" StateProvince="FL" CountryCode="US " /></Location></Hotel><Hotel Code="MCOWYGL" Name="Wyndham Garden Lake Buena Vista Disney Springs Resort Area" LastUpdated="2019-01-22T14:37:49"><Location><Geo Latitude="28.374998" Longitude="-81.5117" /><Address StreetAddress="1850-B Hotel Plaza Blvd" City="Lake Buena Vista" StateProvince="FL" CountryCode="US " /></Location></Hotel><Hotel Code="MCOWYSF" Name="Sheraton Lake Buena Vista Resort" LastUpdated="2018-12-12T03:40:14"><Location><Geo Latitude="28.386808" Longitude="-81.506262" /><Address StreetAddress="12205  South Apopka Vineland Road" City="Orlando" StateProvince="FL" CountryCode="US " /></Location></Hotel><Hotel Code="WDWBAYL" Name="Bay Lake Tower at Disney's Contemporary Resort" LastUpdated="2019-02-15T01:14:02"><Location><Geo Latitude="28.416357" Longitude="-81.573593" /><Address StreetAddress="4600 N. World Drive" City="Lake Buena Vista" StateProvince="FL" CountryCode="US " /></Location></Hotel><Hotel Code="HY;93580" Name="Hyatt Place Lake Mary/Orlando-North" LastUpdated="2014-12-10T00:50:44"><Location><Geo Latitude="28.755197" Longitude="-81.36686" /><Address StreetAddress="1255 South International Pkwy " City="Lake Mary" StateProvince="FL" CountryCode="US " /></Location></Hotel><Hotel Code="HY;989" Name="Hyatt Regency Grand Cypress" LastUpdated="2015-03-13T12:32:31"><Location><Geo Latitude="28.382352" Longitude="-81.511062" /><Address StreetAddress="1 Grand Cypress Blvd " City="ORLANDO" StateProvince="FL" CountryCode="US " /></Location></Hotel><Hotel Code="HY;C4411" Name="Hyatt Place Orlando Lake Buena Vi" LastUpdated="2018-10-17T14:28:22"><Location><Geo Latitude="28.384794" Longitude="-81.504041" /><Address StreetAddress="8688 Palm Parkway " City="Orlando" StateProvince="FL" CountryCode="US " /></Location></Hotel><Hotel Code="HI;MCOAP" Name="Holiday Inn ORLANDO-INTERNATIONAL AIRPORT" LastUpdated="2017-07-12T03:36:00"><Location><Geo Latitude="28.460276" Longitude="-81.308538" /><Address StreetAddress="5750 T.G. LEE BLVD. " City="ORLANDO" StateProvince="FL" CountryCode="US " /></Location></Hotel><Hotel Code="HI;MCOCV" Name="Holiday Inn Club Vacations ORLANDO BREEZE RESORT" LastUpdated="2019-02-13T17:38:46"><Location><Geo Latitude="28.341909" Longitude="-81.673645" /><Address StreetAddress="100 Orlando Breeze Circle " City="Davenport" StateProvince="FL" CountryCode="US " /></Location></Hotel><Hotel Code="HI;MCORV" Name="Holiday Inn and Suites ORLANDO - INTERNATIONAL DR S" LastUpdated="2019-08-15T11:58:43"><Location><Geo Latitude="28.390694" Longitude="-81.48701" /><Address StreetAddress="12005 Regency Village Drive " City="Orlando" StateProvince="FL" CountryCode="US " /></Location></Hotel><Hotel Code="HI;MCOUS" Name="Holiday Inn and Suites Across From Universal Orlando" LastUpdated="2018-10-03T16:26:10"><Location><Geo Latitude="28.476545" Longitude="-81.457798" /><Address StreetAddress="5905 Kirkman Road" City="Orlando" StateProvince="FL" CountryCode="US " /></Location></Hotel><Hotel Code="HJ;18649" Name="Howard Johnson Inn Airport Florida Mall" LastUpdated="2014-12-10T00:50:44"><Location><Geo Latitude="28.424511" Longitude="-81.404099" /><Address StreetAddress="9393 S. Orange Blossom Trail " City="Orlando" StateProvince="FL" CountryCode="US " /></Location></Hotel><Hotel Code="HY;17817" Name="Hyatt Place Orlando Airport NW" LastUpdated="2016-12-05T02:21:18"><Location><Geo Latitude="28.4601" Longitude="-81.3129" /><Address StreetAddress="5435 Forbes Pl " City="Orlando" StateProvince="FL" CountryCode="US " /></Location></Hotel><Hotel Code="HY;21689" Name="Hyatt Regency Orlando" LastUpdated="2015-03-09T15:46:13"><Location><Geo Latitude="28.427354" Longitude="-81.469122" /><Address StreetAddress="9801 International Drive " City="Orlando" StateProvince="FL" CountryCode="US " /></Location></Hotel><Hotel Code="HY;28317" Name="Hyatt Place across from Univer" LastUpdated="2019-04-02T11:37:22"><Location><Geo Latitude="28.475152" Longitude="-81.456987" /><Address StreetAddress="5895 Caravan Court " City="Orlando" StateProvince="FL" CountryCode="US " /></Location></Hotel><Hotel Code="HY;5684" Name="Hyatt Regency Orlando Intl Airport" LastUpdated="2016-01-08T15:44:03"><Location><Geo Latitude="28.430799" Longitude="-81.306278" /><Address StreetAddress="9300 Jeff Fuqua Blvd " City="ORLANDO" StateProvince="FL" CountryCode="US " /></Location></Hotel><Hotel Code="HI;DISBV" Name="Holiday Inn Resort LAKE BUENA VISTA" LastUpdated="2017-07-12T14:55:11"><Location><Geo Latitude="28.3721" Longitude="-81.503499" /><Address StreetAddress="13351 State Road 535 " City="Orlando" StateProvince="FL" CountryCode="US " /></Location></Hotel><Hotel Code="HI;DISCV" Name="Holiday Inn Club Vacations ORLANDO - ORANGE LAKE RESORT" LastUpdated="2018-10-03T15:02:15"><Location><Geo Latitude="28.347079" Longitude="-81.627828" /><Address StreetAddress="8505 W. IRLO BRONSON MEMORIAL HWY. " City="KISSIMMEE" StateProvince="FL" CountryCode="US " /></Location></Hotel><Hotel Code="HI;DISLB" Name="Holiday Inn LAKE BUENA VISTA DOWNTOWN" LastUpdated="2017-07-12T14:56:52"><Location><Geo Latitude="28.374193" Longitude="-81.511375" /><Address StreetAddress="1805 HOTEL PLAZA BLVD. " City="LAKE BUENA VISTA" StateProvince="FL" CountryCode="US " /></Location></Hotel><Hotel Code="EX;MCOCD" Name="Holiday Inn Express Hotel and Suites ORLANDO - INTERNATIONAL DRIVE" LastUpdated="2014-12-10T00:50:44"><Location><Geo Latitude="28.455456" Longitude="-81.470816" /><Address StreetAddress="7276 INTERNATIONAL DRIVE " City="ORLANDO" StateProvince="FL" CountryCode="US " /></Location></Hotel><Hotel Code="EX;MCOES" Name="Holiday Inn Express and Suites ORLANDO - LAKE BUENA VISTA" LastUpdated="2019-08-15T11:58:16"><Location><Geo Latitude="28.39315" Longitude="-81.49319" /><Address StreetAddress="11409 Marbella Palms Court " City="Orlando" StateProvince="FL" CountryCode="US " /></Location></Hotel><Hotel Code="EX;MCOMB" Name="Holiday Inn Express Hotel and Suites NEAREST UNIVERSAL ORLANDO" LastUpdated="2015-09-07T05:49:57"><Location><Geo Latitude="28.480884" Longitude="-81.453593" /><Address StreetAddress="5605 MAJOR BLVD " City="ORLANDO" StateProvince="FL" CountryCode="US " /></Location></Hotel><Hotel Code="FP;4632" Name="Four Points by Sheraton Orlando Convention Center" LastUpdated="2019-02-13T17:38:14"><Location><Geo Latitude="28.419865" Longitude="-81.465561" /><Address StreetAddress="6435 Westwood Boulevard " City="Orlando" StateProvince="FL" CountryCode="US " /></Location></Hotel><Hotel Code="GE;MCOGP" Name="Gaylord Palms Resort and Convention Center" LastUpdated="2015-09-13T05:58:45"><Location><Geo Latitude="28.343637" Longitude="-81.525283" /><Address StreetAddress="6000 West Osceola Parkway " City="Kissimmee" StateProvince="FL" CountryCode="US " /></Location></Hotel><Hotel Code="AL;3761" Name="Aloft Orlando Downtown" LastUpdated="2016-10-12T12:24:39"><Location><Geo Latitude="28.5368" Longitude="-81.3786" /><Address StreetAddress="500 South Orange Avenue " City="Orlando" StateProvince="FL" CountryCode="US " /></Location></Hotel><Hotel Code="BR;MCORA" Name="Renaissance Orlando Airport Hotel" LastUpdated="2014-12-10T00:50:44"><Location><Geo Latitude="28.460208" Longitude="-81.312931" /><Address StreetAddress="5445 Forbes Place " City="Orlando" StateProvince="FL" CountryCode="US " /></Location></Hotel><Hotel Code="BU;46252" Name="Baymont by Wyndham Orlando Universal Blvd" LastUpdated="2019-03-13T20:47:50"><Location><Geo Latitude="28.455458" Longitude="-81.492493" /><Address StreetAddress="7825 Universal Blvd " City="Orlando" StateProvince="FL" CountryCode="US " /></Location></Hotel><Hotel Code="BW;10285" Name="BEST WESTERN PLUS Universal Inn" LastUpdated="2018-01-02T10:14:24"><Location><Geo Latitude="28.481164" Longitude="-81.456945" /><Address StreetAddress="5618 Vineland Road " City="Orlando" StateProvince="FL" CountryCode="US " /></Location></Hotel><Hotel Code="BW;10288" Name="BEST WESTERN Lake Buena Vista - Disney Springs Resort Area" LastUpdated="2018-04-09T11:38:45"><Location><Geo Latitude="28.378555" Longitude="-81.508135" /><Address StreetAddress="2000 Hotel Plaza Boulevard " City="Lake Buena Vista" StateProvince="FL" CountryCode="US " /></Location></Hotel><Hotel Code="BW;10407" Name="The Florida Hotel and Conference Center, BW Premier Collection" LastUpdated="2017-12-06T11:31:49"><Location><Geo Latitude="28.444821" Longitude="-81.395436" /><Address StreetAddress="1500 Sand Lake Road " City="Orlando" StateProvince="FL" CountryCode="US " /></Location></Hotel><Hotel Code="CP;MCOOA" Name="Crowne Plaza ORLANDO-DOWNTOWN" LastUpdated="2015-09-07T06:02:38"><Location><Geo Latitude="28.55304" Longitude="-81.383257" /><Address StreetAddress="304 W. COLONIAL DR. " City="ORLANDO" StateProvince="FL" CountryCode="US " /></Location></Hotel><Hotel Code="CP;MCOUV" Name="Crowne Plaza ORLANDO-UNIVERSAL" LastUpdated="2015-09-07T06:03:20"><Location><Geo Latitude="28.45023" Longitude="-81.465679" /><Address StreetAddress="7800 UNIVERSAL BOULEVARD " City="ORLANDO" StateProvince="FL" CountryCode="US " /></Location></Hotel><Hotel Code="CY;MCOBN" Name="Courtyard Orlando Lake Buena Vista at Vista Centre" LastUpdated="2014-12-10T00:50:44"><Location><Geo Latitude="28.385834" Longitude="-81.501888" /><Address StreetAddress="8501 Palm Parkway " City="Lake Buena Vista" StateProvince="FL" CountryCode="US " /></Location></Hotel><Hotel Code="CY;MCOLY" Name="Courtyard Orlando Lake Buena Vista in the Marriott Village" LastUpdated="2015-08-18T00:52:54"><Location><Geo Latitude="28.376435" Longitude="-81.501458" /><Address StreetAddress="8623 Vineland Avenue " City="Orlando" StateProvince="FL" CountryCode="US " /></Location></Hotel><Hotel Code="CY;MCOMA" Name="Courtyard Orlando Downtown" LastUpdated="2014-12-10T00:50:44"><Location><Geo Latitude="28.554171" Longitude="-81.376834" /><Address StreetAddress="730 North Magnolia Avenue " City="Orlando" StateProvince="FL" CountryCode="US " /></Location></Hotel><Hotel Code="DE;MCODE" Name="Delta Orlando Lake Buena Vista" LastUpdated="2016-02-17T10:07:25"><Location><Geo Latitude="28.384481" Longitude="-81.506266" /><Address StreetAddress="12490 South Apopka Vineland Road " City="Orlando" StateProvince="FL" CountryCode="US " /></Location></Hotel><Hotel Code="DI;09574" Name="Days Inn Orlando Airport  Florida Mall" LastUpdated="2014-12-10T00:50:44"><Location><Geo Latitude="28.426977" Longitude="-81.404563" /><Address StreetAddress="9301 S Orange Blossom Trail " City="Orlando" StateProvince="FL" CountryCode="US " /></Location></Hotel><Hotel Code="DR;DR0152" Name="Drury Inn And Suites Orlando" LastUpdated="2016-05-31T14:38:14"><Location><Geo Latitude="28.45049" Longitude="-81.47696" /><Address StreetAddress="7301 West Sand Lake Road " City="Orlando" StateProvince="FL" CountryCode="US " /></Location></Hotel><Hotel Code="YX;68757" Name="Westgate Blue Tree Resort" LastUpdated="2016-07-25T11:19:36"><Location><Geo Latitude="28.389029" Longitude="-81.502968" /><Address StreetAddress="12007 Cypress Run Rd " City="Orlando" StateProvince="FL" CountryCode="US " /></Location></Hotel><Hotel Code="YX;68758" Name="Westgate Leisure Resort" LastUpdated="2016-07-19T14:17:48"><Location><Geo Latitude="28.392577" Longitude="-81.473734" /><Address StreetAddress="6950 Villa De Costa Dr " City="Orlando" StateProvince="FL" CountryCode="US " /></Location></Hotel><Hotel Code="YX;68759" Name="Westgate Palace Resort" LastUpdated="2016-07-25T11:18:46"><Location><Geo Latitude="28.455872" Longitude="-81.465538" /><Address StreetAddress="6145 Carrier Drive " City="Orlando" StateProvince="FL" CountryCode="US " /></Location></Hotel><Hotel Code="YX;68762" Name="Westgate Town Center Resort" LastUpdated="2016-07-25T11:18:13"><Location><Geo Latitude="28.329043" Longitude="-81.597278" /><Address StreetAddress="7700 Westgate Blvd " City="Kissimmee" StateProvince="FL" CountryCode="US " /></Location></Hotel><Hotel Code="YX;68763" Name="Westgate Vacation Villas Rsrt" LastUpdated="2016-07-25T11:17:44"><Location><Geo Latitude="28.329043" Longitude="-81.597278" /><Address StreetAddress="7700 Westgate Blvd " City="Kissimmee" StateProvince="FL" CountryCode="US " /></Location></Hotel><Hotel Code="WI;3088" Name="The Westin Lake Mary, Orlando North" LastUpdated="2016-10-12T13:30:20"><Location><Geo Latitude="28.788" Longitude="-81.3587" /><Address StreetAddress="2974 International Parkway " City="Lake Mary" StateProvince="FL" CountryCode="US " /></Location></Hotel><Hotel Code="WI;DISNY" Name="Walt Disney World Swan" LastUpdated="2017-05-16T01:35:39"><Location><Geo Latitude="28.3649" Longitude="-81.5599" /><Address StreetAddress="1200 Epcot Resort Boulevard " City="Lake Buena Vista" StateProvince="FL" CountryCode="US " /></Location></Hotel><Hotel Code="WO;5035" Name="Florida Vacation Villas" LastUpdated="2017-09-21T16:59:35"><Location><Geo Latitude="28.327769" Longitude="-81.4895" /><Address StreetAddress="2777 North Poinciana Blvd " City="Kissimmee" StateProvince="FL" CountryCode="US " /></Location></Hotel><Hotel Code="WO;5066" Name="Star Island" LastUpdated="2014-07-11T10:32:30"><Location><Geo Latitude="28.328594" Longitude="-81.484883" /><Address StreetAddress="5000 Avenue Of The Stars " City="Kissimmee" StateProvince="FL" CountryCode="US " /></Location></Hotel><Hotel Code="WO;75343" Name="Kingstown Reef" LastUpdated="2014-07-11T10:33:21"><Location><Geo Latitude="28.390679" Longitude="-81.469273" /><Address StreetAddress="12000 International Drive " City="Orlando" StateProvince="FL" CountryCode="US " /></Location></Hotel><Hotel Code="WO;WV5063" Name="WyndhamVR Bonnet Creek Resort" LastUpdated="2014-07-10T16:30:40"><Location><Geo Latitude="28.360528" Longitude="-81.539274" /><Address StreetAddress="9560 Via Encinas " City="Lake Buena Vista" StateProvince="FL" CountryCode="US " /></Location></Hotel><Hotel Code="WO;WV5069" Name="Orlando International Resort Club" LastUpdated="2014-07-11T10:37:08"><Location><Geo Latitude="28.463899" Longitude="-81.45291" /><Address StreetAddress="5353 Del Verde Way " City="Orlando" StateProvince="FL" CountryCode="US " /></Location></Hotel><Hotel Code="WY;49337" Name="Wyndham Garden  Lake Buena Vista Downtown Disney Resort Area" LastUpdated="2017-12-06T16:42:04"><Location><Geo Latitude="28.37528" Longitude="-81.512001" /><Address StreetAddress="1850 B Hotel Plaza Blvd " City="Lake Buena Vista" StateProvince="FL" CountryCode="US " /></Location></Hotel><Hotel Code="WY;MCOGR" Name="Wyndham Grand Orlando Resort Bonnet Creek" LastUpdated="2014-10-28T11:16:10"><Location><Geo Latitude="28.357045" Longitude="-81.535267" /><Address StreetAddress="14651 Chelonia Parkway " City="Orlando" StateProvince="FL" CountryCode="US " /></Location></Hotel><Hotel Code="WY;MCOLB" Name="Wyndham Lake Buena Vista Resort" LastUpdated="2014-10-28T11:16:10"><Location><Geo Latitude="28.375248" Longitude="-81.512001" /><Address StreetAddress="1850 Hotel Plaza Boulevard " City="Lake Buena Vista" StateProvince="FL" CountryCode="US " /></Location></Hotel><Hotel Code="WY;MCOWD" Name="Wyndham Orlando Resort International Drive" LastUpdated="2014-12-10T00:50:44"><Location><Geo Latitude="28.449734" Longitude="-81.470676" /><Address StreetAddress="8001 International Drive " City="Orlando" StateProvince="FL" CountryCode="US " /></Location></Hotel><Hotel Code="XV;MCOSS" Name="SpringHill Suites Orlando at SeaWorld®" LastUpdated="2015-08-27T01:33:19"><Location><Geo Latitude="28.410172" Longitude="-81.45472" /><Address StreetAddress="10801 International Drive " City="Orlando" StateProvince="FL" CountryCode="US " /></Location></Hotel><Hotel Code="XV;MCOYS" Name="SpringHill Suites Orlando at Millenia" LastUpdated="2018-06-22T09:42:51"><Location><Geo Latitude="28.484308" Longitude="-81.434752" /><Address StreetAddress="5403 Millenia Lakes Boulevard " City="Orlando" StateProvince="FL" CountryCode="US " /></Location></Hotel><Hotel Code="YX;68097" Name="Westgate Lakes Resort and Spa" LastUpdated="2016-07-25T11:23:04"><Location><Geo Latitude="28.4282" Longitude="-81.475119" /><Address StreetAddress="10000 Turkey Lake Rd " City="Orlando" StateProvince="FL" CountryCode="US " /></Location></Hotel><Hotel Code="VC;MCOGV" Name="Marriott's Grande Vista" LastUpdated="2015-08-26T07:17:00"><Location><Geo Latitude="28.397381" Longitude="-81.454459" /><Address StreetAddress="5925 Avenida Vista " City="Orlando" StateProvince="FL" CountryCode="US " /></Location></Hotel><Hotel Code="VC;MCOHO" Name="Marriott's Harbour Lake" LastUpdated="2015-08-26T07:17:32"><Location><Geo Latitude="28.403212" Longitude="-81.478652" /><Address StreetAddress="7102 Grand Horizons Boulevard " City="Orlando" StateProvince="FL" CountryCode="US " /></Location></Hotel><Hotel Code="VC;MCOIP" Name="Marriott's Imperial Palm Villas" LastUpdated="2015-08-26T07:18:05"><Location><Geo Latitude="28.361867" Longitude="-81.501806" /><Address StreetAddress="8404 Vacation Way " City="Orlando" StateProvince="FL" CountryCode="US " /></Location></Hotel><Hotel Code="VC;MCORP" Name="Marriott's Royal Palms" LastUpdated="2015-08-26T07:18:33"><Location><Geo Latitude="28.36204" Longitude="-81.501806" /><Address StreetAddress="8404 Vacation Way " City="Orlando" StateProvince="FL" CountryCode="US " /></Location></Hotel><Hotel Code="VC;MCOSP" Name="Marriott's Sabal Palms" LastUpdated="2015-08-26T07:19:07"><Location><Geo Latitude="28.359772" Longitude="-81.50628" /><Address StreetAddress="8805 World Center Drive " City="Orlando" StateProvince="FL" CountryCode="US " /></Location></Hotel><Hotel Code="WG;08947" Name="Wingate by Wyndham Convention Ctr Closest Universal Orlando" LastUpdated="2014-12-10T00:50:44"><Location><Geo Latitude="28.486841" Longitude="-81.457382" /><Address StreetAddress="5661 Windhover Drive " City="Orlando" StateProvince="FL" CountryCode="US " /></Location></Hotel><Hotel Code="RC;MCOAR" Name="Residence Inn Orlando Airport" LastUpdated="2014-12-10T00:50:44"><Location><Geo Latitude="28.461596" Longitude="-81.3061" /><Address StreetAddress="7024 Augusta National Drive " City="Orlando" StateProvince="FL" CountryCode="US " /></Location></Hotel><Hotel Code="RC;MCOSW" Name="Residence Inn Orlando at SeaWorld®" LastUpdated="2015-08-27T01:27:20"><Location><Geo Latitude="28.406478" Longitude="-81.474451" /><Address StreetAddress="11000 Westwood Boulevard " City="Orlando" StateProvince="FL" CountryCode="US " /></Location></Hotel><Hotel Code="RC;MCOTW" Name="Residence Inn Near Universal Orlando™" LastUpdated="2018-01-24T06:21:03"><Location><Geo Latitude="28.480753" Longitude="-81.454811" /><Address StreetAddress="5616 Major Boulevard " City="Orlando" StateProvince="FL" CountryCode="US " /></Location></Hotel><Hotel Code="RC;MCOYR" Name="Residence Inn Orlando at Millenia" LastUpdated="2018-06-22T09:42:42"><Location><Geo Latitude="28.484487" Longitude="-81.434913" /><Address StreetAddress="5403 Millenia Lakes Boulevard " City="Orlando" StateProvince="FL" CountryCode="US " /></Location></Hotel><Hotel Code="RA;30449" Name="Ramada Plaza Resort and Suites Orlando International Drive" LastUpdated="2015-09-13T05:18:37"><Location><Geo Latitude="28.457758" Longitude="-81.469055" /><Address StreetAddress="6500 International Drive " City="Orlando" StateProvince="FL" CountryCode="US " /></Location></Hotel><Hotel Code="RA;42551" Name="Ramada Suites Orlando Airport" LastUpdated="2015-09-13T05:19:43"><Location><Geo Latitude="28.456158" Longitude="-81.307602" /><Address StreetAddress="7500 Augusta National Dr. " City="Orlando" StateProvince="FL" CountryCode="US " /></Location></Hotel><Hotel Code="SB;MCOOS" Name="Staybridge Suites ORLANDO-THEME PARKS" LastUpdated="2017-12-06T11:27:29"><Location><Geo Latitude="28.38873" Longitude="-81.477513" /><Address StreetAddress="6985 Sea Harbor Drive " City="Orlando" StateProvince="FL" CountryCode="US " /></Location></Hotel><Hotel Code="SB;MCOYZ" Name="Staybridge Suites ORLANDO AIRPORT SOUTH" LastUpdated="2016-11-30T08:39:16"><Location><Geo Latitude="28.457175" Longitude="-81.306133" /><Address StreetAddress="7450 Augusta National Drive " City="Orlando" StateProvince="FL" CountryCode="US " /></Location></Hotel><Hotel Code="SI;1162" Name="Sheraton Lake Buena Vista Resort" LastUpdated="2016-10-12T13:24:02"><Location><Geo Latitude="28.3881" Longitude="-81.506" /><Address StreetAddress="12205 S Apopka Vineland Road " City="Orlando" StateProvince="FL" CountryCode="US " /></Location></Hotel><Hotel Code="SI;468" Name="Walt Disney World Dolphin" LastUpdated="2017-05-16T01:33:32"><Location><Geo Latitude="28.3692" Longitude="-81.5629" /><Address StreetAddress="1500 Epcot Resort Boulevard " City="Lake Buena Vista" StateProvince="FL" CountryCode="US " /></Location></Hotel><Hotel Code="SI;5607" Name="Sheraton Vistana Villages Resort Villas, I-Drive/Orlando" LastUpdated="2017-12-26T02:20:59"><Location><Geo Latitude="28.388" Longitude="-81.476" /><Address StreetAddress="12401 International Drive " City="Orlando" StateProvince="FL" CountryCode="US " /></Location></Hotel><Hotel Code="SI;5608" Name="Sheraton Vistana Resort Villas, Lake Buena Vista/Orlando" LastUpdated="2017-12-26T02:24:56"><Location><Geo Latitude="28.3684" Longitude="-81.5035" /><Address StreetAddress="8800 Vistana Centre Drive " City="Orlando" StateProvince="FL" CountryCode="US " /></Location></Hotel><Hotel Code="SN;56932" Name="Sonesta ES Suites Orlando" LastUpdated="2016-06-03T12:58:55"><Location><Geo Latitude="28.442004" Longitude="-81.471163" /><Address StreetAddress="8480 International Drive " City="Orlando" StateProvince="FL" CountryCode="US " /></Location></Hotel><Hotel Code="MC;MCOAP" Name="Orlando Airport Marriott" LastUpdated="2015-08-26T07:21:26"><Location><Geo Latitude="28.456274" Longitude="-81.306517" /><Address StreetAddress="7499 Augusta National Drive " City="Orlando" StateProvince="FL" CountryCode="US " /></Location></Hotel><Hotel Code="MC;MCODO" Name="Marriott Orlando Downtown" LastUpdated="2019-02-13T17:40:23"><Location><Geo Latitude="28.546731" Longitude="-81.384272" /><Address StreetAddress="400 West Livingston Street " City="Orlando" StateProvince="FL" CountryCode="US " /></Location></Hotel><Hotel Code="MC;MCOJW" Name="JW Marriott Orlando Grande Lakes" LastUpdated="2016-11-30T08:43:19"><Location><Geo Latitude="28.401334" Longitude="-81.428003" /><Address StreetAddress="4040 Central Florida Parkway " City="Orlando" StateProvince="FL" CountryCode="US " /></Location></Hotel><Hotel Code="MC;MCOML" Name="Orlando Marriott Lake Mary" LastUpdated="2014-12-10T00:50:44"><Location><Geo Latitude="28.783773" Longitude="-81.357777" /><Address StreetAddress="1501 International Parkway " City="Lake Mary" StateProvince="FL" CountryCode="US " /></Location></Hotel><Hotel Code="MC;MCOWC" Name="Orlando World Center Marriott" LastUpdated="2015-08-26T07:22:07"><Location><Geo Latitude="28.360086" Longitude="-81.508582" /><Address StreetAddress="8701 World Center Drive " City="Orlando" StateProvince="FL" CountryCode="US " /></Location></Hotel></Destination></Response></VAXXML></string>